School_Id,Suburb,State Code,Address,School_Information,Latitude,Longitude,ICSEA_Value,Student_number,,Postcode
1001,Abbotsford ,NSW,"Abbotsford Public School, 350 Great North Rd, Postcode-2046","Primary School (Coed, Kinder to Year 6)",-33.852728,151.131206,1127,602,,2046
1002,Aberdeen,NSW,"Aberdeen Public School, Segenhoe St, Postcode-2336","Primary School (Coed, Kinder to Year 6)",-32.166098,150.888095,917,241,,2336
1003,Abermain ,NSW,"Abermain Public School, Goulburn St, Postcode-2326","Primary School (Coed, Kinder to Year 6)",-32.80892,151.426499,887,264,,2326
1007,Adaminaby,NSW,"Adaminaby Public School, 9 Cosgrove Street, Postcode-2629","Primary School (Coed, Kinder to Year 6)",-35.993292,148.776721,973,17,,2629
1008,Adamstown ,NSW,"Adamstown Public School, Bryant St, Postcode-2289","Primary School (Coed, Kinder to Year 6)",-32.932213,151.730971,1024,263,,2289
1009,Adelong ,NSW,"Adelong Public School, Gilmore St, Postcode-2729","Primary School (Coed, Kinder to Year 6)",-35.312333,148.062802,966,81,,2729
1015,Albion Park ,NSW,"Albion Park Public School, Tongarra & Hamilton Rds, Postcode-2527","Primary School (Coed, Kinder to Year 6)",-34.570257,150.77262,977,435,,2527
1016,Timbumburi ,NSW,"Timbumburi Public School, 542 Kia Ora Lane, Postcode-2340","Primary School (Coed, Kinder to Year 6)",-31.203781,150.915629,995,144,,2340
1017,Albury ,NSW,"Albury Public School, 481 David St, Postcode-2640","Primary School (Coed, Kinder to Year 6)",-36.082454,146.919253,1055,612,,2640
1019,Albury ,NSW,"Albury West Public School, Mott St, Postcode-2640","Primary School (Coed, Kinder to Year 6)",-36.07783,146.895548,866,118,,2640
1028,Broken Hill ,NSW,"Alma Public School, Comstock St, Postcode-2880","Primary School (Coed, Kinder to Year 6)",-31.982217,141.462443,844,236,,2880
1030,Alstonville ,NSW,"Alstonville Public School, Main St, Postcode-2477","Primary School (Coed, Kinder to Year 6)",-28.838471,153.438172,1018,540,,2477
1040,Anna Bay ,NSW,"Anna Bay Public School, 191 Gan Gan Rd, Postcode-2316","Primary School (Coed, Kinder to Year 6)",-32.77637,152.089912,970,297,,2316
1041,Annandale ,NSW,"Annandale Public School, 25 Johnston St, Postcode-2038","Primary School (Coed, Kinder to Year 6)",-33.885782,151.169599,1150,372,,2038
1042,Annandale ,NSW,"Annandale North Public School, 206 Johnston St, Postcode-2038","Primary School (Coed, Kinder to Year 6)",-33.877905,151.171835,1174,398,,2038
1045,Appin,NSW,"Appin Public School, 97 Appin Road, Postcode-2560","Primary School (Coed, Kinder to Year 6)",-34.198417,150.78766,991,271,,2560
1048,Arcadia,NSW,"Arcadia Public School, 140 Arcadia Road, Postcode-2159","Primary School (Coed, Kinder to Year 6)",-33.623487,151.051031,1064,72,,2159
1051,Ardlethan ,NSW,"Ardlethan Central School, Mithul St, Postcode-2665","CentralCommunity School (Coed, Kinder to Year 12)",-34.354098,146.900557,966,83,,2665
1055,Ariah Park ,NSW,"Ariah Park Central School, Reid St, Postcode-2665","CentralCommunity School (Coed, Kinder to Year 12)",-34.346925,147.218018,983,125,,2665
1057,Armidale ,NSW,"Armidale City Public School, Faulkner St, Postcode-2350","Primary School (Coed, Kinder to Year 6)",-30.519501,151.664056,1023,446,,2350
1058,Armidale,NSW,"Drummond Memorial Public School, 250 Rusden Street, Postcode-2350","Primary School (Coed, Kinder to Year 6)",-30.511469,151.650715,825,122,,2350
1061,Artarmon ,NSW,"Artarmon Public School, McMillan Rd, Postcode-2064","Primary School (Coed, Kinder to Year 6)",-33.811249,151.186001,1186,1125,,2064
1064,Ashbury,NSW,"Ashbury Public School, Trevenar St, Postcode-2193","Primary School (Coed, Kinder to Year 6)",-33.898833,151.11944,1107,381,,2193
1065,Ashfield ,NSW,"Ashfield Public School, Liverpool Rd, Postcode-2131","Primary School (Coed, Kinder to Year 6)",-33.889723,151.12821,1066,370,,2131
1066,Ashford ,NSW,"Ashford Central School, Albury St, Postcode-2361","CentralCommunity School (Coed, Kinder to Year 12)",-29.321262,151.094638,854,168,,2361
1070,Asquith,NSW,"Asquith Public School, Dudley St, Postcode-2077","Primary School (Coed, Kinder to Year 6)",-33.685729,151.112177,1090,374,,2077
1071,Attunga ,NSW,"Attunga Public School, Railway St, Postcode-2345","Primary School (Coed, Kinder to Year 6)",-30.930445,150.846575,944,37,,2345
1073,Auburn ,NSW,"Auburn North Public School, 100 Adderley St, Postcode-2144","Primary School (Coed, Kinder to Year 6)",-33.841669,151.038618,966,665,,2144
1075,Auburn ,NSW,"Auburn West Public School, Chiswick Rd, Postcode-2144","Primary School (Coed, Kinder to Year 6)",-33.860931,151.019764,906,721,,2144
1076,Austinmer ,NSW,"Austinmer Public School, 90 Lawrence Hargrave Drive, Postcode-2515","Primary School (Coed, Kinder to Year 6)",-34.305398,150.934991,1105,345,,2515
1077,Austral,NSW,"Austral Public School, 219 Edmondson Avenue, Postcode-2179","Primary School (Coed, Kinder to Year 6)",-33.934487,150.812638,953,281,,2179
1081,Avoca,NSW,"Avoca Public School, Sheepwash Rd, Postcode-2577","Primary School (Coed, Kinder to Year 6)",-34.612697,150.479766,998,21,,2577
1082,Avoca Beach,NSW,"Avoca Beach Public School, The Round Drive, Postcode-2251","Primary School (Coed, Kinder to Year 6)",-33.471154,151.430745,1094,511,,2251
1084,Awaba,NSW,"Awaba Public School, Mulbring Street, Postcode-2283","Primary School (Coed, Kinder to Year 6)",-33.010554,151.538068,969,36,,2283
1085,Colo Vale ,NSW,"Colo Vale Public School, Wattle St, Postcode-2575","Primary School (Coed, Kinder to Year 6)",-34.401281,150.476178,992,230,,2575
1098,Guyra ,NSW,"Bald Blair Public School, Ebor Rd, Postcode-2365","Primary School (Coed, Kinder to Year 6)",-30.229893,151.785056,972,36,,2365
1104,Seaforth ,NSW,"Seaforth Public School, 37 Kempbridge Avenue, Postcode-2092","Primary School (Coed, Kinder to Year 6)",-33.793262,151.251235,1152,566,,2092
1106,Balgownie ,NSW,"Balgownie Public School, Balgownie Rd, Postcode-2519","Primary School (Coed, Kinder to Year 6)",-34.386984,150.872076,1077,349,,2519
1111,Ballimore ,NSW,"Ballimore Public School, Bomen St, Postcode-2830","Primary School (Coed, Kinder to Year 6)",-32.193596,148.899631,943,14,,2830
1112,Ballina ,NSW,"Ballina Public School, 48 Crane St, Postcode-2478","Primary School (Coed, Kinder to Year 6)",-28.869724,153.563707,836,246,,2478
1115,Balranald,NSW,"Balranald Central School, We St, Postcode-2715","CentralCommunity School (Coed, Kinder to Year 12)",-34.635575,143.564769,899,152,,2715
1118,Bangalow ,NSW,"Bangalow Public School, Byron St, Postcode-2479","Primary School (Coed, Kinder to Year 6)",-28.68554,153.525743,1102,291,,2479
1121,Botany ,NSW,"Banksmeadow Public School, Trevelyan & Wiggins Sts, Postcode-2019","Primary School (Coed, Kinder to Year 6)",-33.953739,151.20661,1039,254,,2019
1123,Greenacre,NSW,"Greenacre Public School, Waterloo Rd, Postcode-2190","Primary School (Coed, Kinder to Year 6)",-33.911161,151.057581,932,797,,2190
1124,Bankstown ,NSW,"Bankstown North Public School, 322 Hume Hwy, Postcode-2200","Primary School (Coed, Kinder to Year 6)",-33.904888,151.038043,979,377,,2200
1129,Banora Point ,NSW,"Banora Point Public School, Pioneer Pde, Postcode-2486","Primary School (Coed, Kinder to Year 6)",-28.222422,153.543702,995,621,,2486
1130,Baradine,NSW,"Baradine Central School, Narren St, Postcode-2396","CentralCommunity School (Coed, Kinder to Year 12)",-30.950736,149.070198,787,109,,2396
1131,Barellan ,NSW,"Barellan Central School, Boree St, Postcode-2665","CentralCommunity School (Coed, Kinder to Year 12)",-34.287799,146.571928,967,119,,2665
1134,Bargo ,NSW,"Bargo Public School, Southern Rd, Postcode-2574","Primary School (Coed, Kinder to Year 6)",-34.292889,150.58274,979,359,,2574
1135,Barham,NSW,"Barham Public School, Wakool St, Postcode-2732","Primary School (Coed, Kinder to Year 6)",-35.626915,144.127977,992,147,,2732
1136,Wadeville ,NSW,"Barkers Vale Public School, 4501 Kyogle Rd, Postcode-2474","Primary School (Coed, Kinder to Year 6)",-28.54902,153.14927,978,51,,2474
1137,Barmedman ,NSW,"Barmedman Public School, Robertson St, Postcode-2668","Primary School (Coed, Kinder to Year 6)",-34.148277,147.385078,866,15,,2668
1138,Barnsley ,NSW,"Barnsley Public School, Cliffbrook St, Postcode-2278","Primary School (Coed, Kinder to Year 6)",-32.933094,151.594552,951,283,,2278
1139,Barooga ,NSW,"Barooga Public School, Hughes St, Postcode-3644","Primary School (Coed, Kinder to Year 6)",-35.912963,145.695985,963,151,,3644
1140,Barraba ,NSW,"Barraba Central School, Gotha St, Postcode-2347","CentralCommunity School (Coed, Kinder to Year 12)",-30.38239,150.599478,899,189,,2347
1143,Barrington ,NSW,"Barrington Public School, 1 Kenmore St, Postcode-2422","Primary School (Coed, Kinder to Year 6)",-31.971159,151.911058,1002,58,,2422
1146,Baryulgil ,NSW,"Baryulgil Public School, 7135 Clarence Way, Postcode-2460","Primary School (Coed, Kinder to Year 6)",-29.2235,152.605615,,9,,2460
1148,Bass Hill ,NSW,"Bass Hill Public School, 611 Hume Hwy, Postcode-2197","Primary School (Coed, Kinder to Year 6)",-33.905902,151.005779,944,354,,2197
1149,Surfside,NSW,"Batemans Bay Public School, Mundarra Way, Postcode-2536","Primary School (Coed, Kinder to Year 6)",-35.700051,150.188373,897,569,,2536
1150,Bathurst ,NSW,"Bathurst Public School, George St, Postcode-2795","Primary School (Coed, Kinder to Year 6)",-33.420942,149.570615,982,577,,2795
1152,Batlow ,NSW,"Batlow Technology School, Pioneer St, Postcode-2730","CentralCommunity School (Coed, Kinder to Year 12)",-35.523007,148.146548,929,109,,2730
1160,Beckom ,NSW,"Beckom Public School, Welman St, Postcode-2665","Primary School (Coed, Kinder to Year 6)",-34.327211,146.962928,947,11,,2665
1164,Bedgerebong ,NSW,"Bedgerebong Public School, North Condobolin Rd, Postcode-2871","Primary School (Coed, Kinder to Year 6)",-33.361353,147.679318,903,55,,2871
1165,Wauchope ,NSW,"Beechwood Public School, 614 Beechwood Road, Postcode-2446","Primary School (Coed, Kinder to Year 6)",-31.435535,152.68094,972,128,,2446
1166,Beecroft ,NSW,"Beecroft Public School, 98 Beecroft Rd, Postcode-2119","Primary School (Coed, Kinder to Year 6)",-33.752085,151.06462,1199,817,,2119
1167,Beelbangera ,NSW,"Beelbangera Public School, Rankins Springs Rd, Postcode-2680","Primary School (Coed, Kinder to Year 6)",-34.252836,146.101067,1010,179,,2680
1168,Bega ,NSW,"Bega Valley Public School, 27 Auckland St, Postcode-2550","Primary School (Coed, Kinder to Year 6)",-36.670545,149.839095,907,347,,2550
1175,Bellata ,NSW,"Bellata Public School, Gurley St, Postcode-2397","Primary School (Coed, Kinder to Year 6)",-29.918659,149.796216,914,29,,2397
1177,Bellbird ,NSW,"Bellbird Public School, Doyle St, Postcode-2325","Primary School (Coed, Kinder to Year 6)",-32.859421,151.316705,944,265,,2325
1178,Bellbrook,NSW,"Bellbrook Public School, Main St, Postcode-2440","Primary School (Coed, Kinder to Year 6)",-30.819094,152.508698,838,31,,2440
1179,Bellevue Hill ,NSW,"Bellevue Hill Public School, Victoria Rd, Postcode-2023","Primary School (Coed, Kinder to Year 6)",-33.886986,151.259785,1153,611,,2023
1181,Bellingen ,NSW,"Bellingen Public School, William St, Postcode-2454","Primary School (Coed, Kinder to Year 6)",-30.45349,152.891887,1006,395,,2454
1182,Belltrees ,NSW,"Belltrees Public School, Moonan Flat Rd, Postcode-2337","Primary School (Coed, Kinder to Year 6)",-31.988753,151.129487,977,11,,2337
1183,Belmont ,NSW,"Belmont Public School, Livingstone St, Postcode-2280","Primary School (Coed, Kinder to Year 6)",-33.030134,151.662203,940,268,,2280
1185,Belmore ,NSW,"Belmore North Public School, Burwood Rd, Postcode-2192","Primary School (Coed, Kinder to Year 6)",-33.909885,151.084885,964,340,,2192
1186,Belmore ,NSW,"Belmore South Public School, Nelson Ave & Canterbury Rd, Postcode-2192","Primary School (Coed, Kinder to Year 6)",-33.925735,151.091985,970,247,,2192
1189,Bemboka ,NSW,"Bemboka Public School, Kameruka St, Postcode-2550","Primary School (Coed, Kinder to Year 6)",-36.631309,149.571075,950,51,,2550
1191,Bendemeer ,NSW,"Bendemeer Public School, Charles St, Postcode-2355","Primary School (Coed, Kinder to Year 6)",-30.886984,151.150991,904,17,,2355
1196,Ben Lomond ,NSW,"Ben Lomond Public School, Inn Rd, Postcode-2365","Primary School (Coed, Kinder to Year 6)",-30.017024,151.661287,1002,7,,2365
1198,Armidale ,NSW,"Ben Venue Public School, Erskine St, Postcode-2350","Primary School (Coed, Kinder to Year 6)",-30.502884,151.67462,1022,565,,2350
1199,Berala,NSW,"Berala Public School, Harrow Rd, Postcode-2141","Primary School (Coed, Kinder to Year 6)",-33.869714,151.028244,1000,852,,2141
1201,Beresfield,NSW,"Beresfield Public School, 181-183 Anderson Dr (Cnr Lawson Ave), Postcode-2322","Primary School (Coed, Kinder to Year 6)",-32.803964,151.654863,916,290,,2322
1202,Berkeley ,NSW,"Berkeley Public School, George St, Postcode-2506","Primary School (Coed, Kinder to Year 6)",-34.480214,150.856493,906,335,,2506
1203,Berkeley Vale ,NSW,"Berkeley Vale Public School, Pindarri Ave, Postcode-2259","Primary School (Coed, Kinder to Year 6)",-33.350515,151.435888,990,775,,2259
1204,Bermagui ,NSW,"Bermagui Public School, George St, Postcode-2546","Primary School (Coed, Kinder to Year 6)",-36.420776,150.063625,928,169,,2546
1205,Berowra ,NSW,"Berowra Public School, Hillcrest Rd, Postcode-2081","Primary School (Coed, Kinder to Year 6)",-33.618522,151.148996,1095,395,,2081
1206,Berridale ,NSW,"Berridale Public School, Oliver St, Postcode-2628","Primary School (Coed, Kinder to Year 6)",-36.371444,148.827209,986,71,,2628
1207,Berrigan ,NSW,"Berrigan Public School, 25-29 Momalong St, Postcode-2712","Primary School (Coed, Kinder to Year 6)",-35.659667,145.815664,952,82,,2712
1209,Berrima ,NSW,"Berrima Public School, Oxley St, Postcode-2577","Primary School (Coed, Kinder to Year 6)",-34.485882,150.340775,1027,140,,2577
1211,Berry ,NSW,"Berry Public School, Victoria St, Postcode-2535","Primary School (Coed, Kinder to Year 6)",-34.778317,150.689706,1069,338,,2535
1215,Beverly Hills ,NSW,"Beverly Hills Public School, Stoney Creek & King Georges Rds, Postcode-2209","Primary School (Coed, Kinder to Year 6)",-33.953449,151.085209,1050,527,,2209
1217,Bexhill,NSW,"Bexhill Public School, 12 Withers St, Postcode-2480","Primary School (Coed, Kinder to Year 6)",-28.766026,153.345835,1037,103,,2480
1223,Bigga ,NSW,"Bigga Public School, Blackman St, Postcode-2583","Primary School (Coed, Kinder to Year 6)",-34.0847,149.144602,1022,13,,2583
1224,Bilambil ,NSW,"Bilambil Public School, Bilambil Rd, Postcode-2486","Primary School (Coed, Kinder to Year 6)",-28.223742,153.468431,990,312,,2486
1227,Ocean Shores,NSW,"Ocean Shores Public School, 166 Shara Boulevarde, Postcode-2483","Primary School (Coed, Kinder to Year 6)",-28.491203,153.540337,1044,357,,2483
1228,Bilpin ,NSW,"Bilpin Public School, Bells Line of Road, Postcode-2758","Primary School (Coed, Kinder to Year 6)",-33.497331,150.516765,1022,67,,2758
1230,Binalong,NSW,"Binalong Public School, Dickinson Street, Postcode-2584","Primary School (Coed, Kinder to Year 6)",-34.670108,148.625718,976,30,,2584
1231,Binda ,NSW,"Binda Public School, Queen St, Postcode-2583","Primary School (Coed, Kinder to Year 6)",-34.331463,149.368114,776,11,,2583
1234,Bingara ,NSW,"Bingara Central School, Finch St, Postcode-2404","CentralCommunity School (Coed, Kinder to Year 12)",-29.866705,150.56725,912,197,,2404
1237,Binnaway,NSW,"Binnaway Central School, David St, Postcode-2395","CentralCommunity School (Coed, Kinder to Year 12)",-31.552793,149.374951,832,67,,2395
1238,Binya,NSW,"Binya Public School, 16 Stephensons Rd, Postcode-2665","Primary School (Coed, Kinder to Year 6)",-34.228678,146.353034,1011,13,,2665
1240,Balmain ,NSW,"Birchgrove Public School, Birchgrove Rd, Postcode-2041","Primary School (Coed, Kinder to Year 6)",-33.853009,151.177045,1156,356,,2041
1246,Blackheath ,NSW,"Blackheath Public School, Leichhardt St, Postcode-2785","Primary School (Coed, Kinder to Year 6)",-33.639284,150.285831,1077,332,,2785
1247,Black Hill ,NSW,"Black Hill Public School, 408 Black Hill Rd, Postcode-2322","Primary School (Coed, Kinder to Year 6)",-32.838523,151.617131,1009,103,,2322
1249,Black Mountain ,NSW,"Black Mountain Public School, 815 Black Mountain Rd, Postcode-2365","Primary School (Coed, Kinder to Year 6)",-30.308489,151.657688,976,32,,2365
1252,Blackville ,NSW,"Blackville Public School, O'Neile St, Postcode-2343","Primary School (Coed, Kinder to Year 6)",-31.64044,150.237489,939,15,,2343
1254,Blakebrook ,NSW,"Blakebrook Public School, Rosehill Rd, Postcode-2480","Primary School (Coed, Kinder to Year 6)",-28.763426,153.229992,1002,94,,2480
1255,Blakehurst ,NSW,"Blakehurst Public School, Dewrang St, Postcode-2221","Primary School (Coed, Kinder to Year 6)",-33.98298,151.115779,1027,288,,2221
1256,Blandford ,NSW,"Blandford Public School, New England Hwy, Postcode-2338","Primary School (Coed, Kinder to Year 6)",-31.778585,150.892725,999,41,,2338
1257,Granville,NSW,"Blaxcell Street Public School, 352 Blaxcell Street, Postcode-2142","Primary School (Coed, Kinder to Year 6)",-33.858068,151.006125,951,810,,2142
1258,Blaxland,NSW,"Blaxland Public School, Baden Place, Postcode-2774","Primary School (Coed, Kinder to Year 6)",-33.737103,150.603489,1043,141,,2774
1260,Blayney ,NSW,"Blayney Public School, Lindsay St, Postcode-2799","Primary School (Coed, Kinder to Year 6)",-33.528987,149.251583,959,293,,2799
1261,Blighty ,NSW,"Blighty Public School, Blighty School Rd, Postcode-2713","Primary School (Coed, Kinder to Year 6)",-35.580094,145.349272,983,30,,2713
1266,Boambee,NSW,"Boambee Public School, 30 Lindsays Rd, Postcode-2450","Primary School (Coed, Kinder to Year 6)",-30.334055,153.077009,985,428,,2450
1269,Bobin ,NSW,"Bobin Public School, Bulga Rd, Postcode-2429","Primary School (Coed, Kinder to Year 6)",-31.712682,152.28388,998,13,,2429
1271,Bobs Farm,NSW,"Bobs Farm Public School, 764 Marsh Rd, Postcode-2316","Primary School (Coed, Kinder to Year 6)",-32.766796,152.010937,984,31,,2316
1272,Bodalla ,NSW,"Bodalla Public School, Potato Point Rd, Postcode-2545","Primary School (Coed, Kinder to Year 6)",-36.09938,150.053879,915,89,,2545
1274,Bogan Gate,NSW,"Bogan Gate Public School, 5 Bogan Street, Postcode-2876","Primary School (Coed, Kinder to Year 6)",-33.104968,147.797859,903,8,,2876
1275,Boggabilla ,NSW,"Boggabilla Central School, South St, Postcode-2409","CentralCommunity School (Coed, Kinder to Year 12)",-28.616586,150.361593,626,79,,2409
1276,Boggabri ,NSW,"Boggabri Public School, Merton St, Postcode-2382","Primary School (Coed, Kinder to Year 6)",-30.705682,150.043053,878,118,,2382
1286,Bolwarra ,NSW,"Bolwarra Public School, Bolwarra Rd, Postcode-2320","Primary School (Coed, Kinder to Year 6)",-32.706994,151.573008,1041,473,,2320
1287,Bomaderry ,NSW,"Bomaderry Public School, Cambewarra Rd, Postcode-2541","Primary School (Coed, Kinder to Year 6)",-34.847379,150.608269,897,332,,2541
1288,Bombala,NSW,"Bombala Public School, 8 Bright St, Postcode-2632","Primary School (Coed, Kinder to Year 6)",-36.918986,149.233792,947,124,,2632
1290,Bonalbo,NSW,"Bonalbo Central School, Yabbra St, Postcode-2469","CentralCommunity School (Coed, Kinder to Year 12)",-28.735472,152.623959,880,144,,2469
1292,Bondi Beach ,NSW,"Bondi Beach Public School, Campbell Pde, Postcode-2026","Primary School (Coed, Kinder to Year 6)",-33.8883,151.276821,1144,604,,2026
1293,Adjungbilly,NSW,"Bongongo Public School, Adjungbilly Rd, Postcode-2727","Primary School (Coed, Kinder to Year 6)",-35.08463,148.399517,928,13,,2727
1296,Bonshaw ,NSW,"Bonshaw Public School, Texas St, Postcode-2361","Primary School (Coed, Kinder to Year 6)",-29.046366,151.278092,1007,14,,2361
1297,Bonville ,NSW,"Bonville Public School, 11 Gleniffer Rd, Postcode-2441","Primary School (Coed, Kinder to Year 6)",-30.379782,153.032316,1007,140,,2441
1302,Boolaroo ,NSW,"Boolaroo Public School, Main Rd & Second St, Postcode-2284","Primary School (Coed, Kinder to Year 6)",-32.951196,151.622765,903,52,,2284
1303,Booligal ,NSW,"Booligal Public School, Harvey St, Postcode-2711","Primary School (Coed, Kinder to Year 6)",-33.86704,144.886395,1055,10,,2711
1307,Boomi ,NSW,"Boomi Public School, Werrina Street, Postcode-2405","Primary School (Coed, Kinder to Year 6)",-28.724129,149.577268,920,33,,2405
1311,Booral ,NSW,"Booral Public School, 2800 Bucketts Way, Postcode-2425","Primary School (Coed, Kinder to Year 6)",-32.471428,151.960736,950,71,,2425
1313,Boorowa ,NSW,"Boorowa Central School, Pudman St, Postcode-2586","CentralCommunity School (Coed, Kinder to Year 12)",-34.436712,148.726108,945,235,,2586
1318,Boree Creek ,NSW,"Boree Creek Public School, Lockhart-Morundah Rd, Postcode-2652","Primary School (Coed, Kinder to Year 6)",-35.105937,146.606338,931,21,,2652
1320,Hunters Hill,NSW,"Boronia Park Public School, 113 Pittwater Rd, Postcode-2110","Primary School (Coed, Kinder to Year 6)",-33.821414,151.135558,1131,488,,2110
1321,Bossley Park ,NSW,"Bossley Park Public School, Marconi Rd, Postcode-2176","Primary School (Coed, Kinder to Year 6)",-33.858524,150.883076,983,413,,2176
1323,Botany ,NSW,"Botany Public School, 1076 Botany Rd, Postcode-2019","Primary School (Coed, Kinder to Year 6)",-33.94316,151.194687,1059,266,,2019
1326,Bourke,NSW,"Bourke Public School, 19 Green Street, Postcode-2840","Primary School (Coed, Kinder to Year 6)",-30.09351,145.94968,738,227,,2840
1334,Bowning ,NSW,"Bowning Public School, 147 Bowning Road, Postcode-2582","Primary School (Coed, Kinder to Year 6)",-34.769376,148.81153,924,28,,2582
1335,Bowral,NSW,"Bowral Public School, Bendooley Street, Postcode-2576","Primary School (Coed, Kinder to Year 6)",-34.481178,150.419191,1075,603,,2576
1336,Bowraville,NSW,"Bowraville Central School, 23 High Street, Postcode-2449","CentralCommunity School (Coed, Kinder to Year 12)",-30.645289,152.853898,845,254,,2449
1340,Braidwood ,NSW,"Braidwood Central School, Wilson St, Postcode-2622","CentralCommunity School (Coed, Kinder to Year 12)",-35.440595,149.798888,982,376,,2622
1341,Branxton,NSW,"Branxton Public School, 12 King Street, Postcode-2335","Primary School (Coed, Kinder to Year 6)",-32.659391,151.350682,959,355,,2335
1345,Breadalbane,NSW,"Breadalbane Public School, Collector Road, Postcode-2581","Primary School (Coed, Kinder to Year 6)",-34.790546,149.487576,971,10,,2581
1346,Colo Heights,NSW,"Colo Heights Public School, 3018 Putty Road, Postcode-2756","Primary School (Coed, Kinder to Year 6)",-33.372972,150.739776,914,53,,2756
1347,Bredbo ,NSW,"Bredbo Public School, Monaro Hwy, Postcode-2626","Primary School (Coed, Kinder to Year 6)",-35.95399,149.14797,1049,12,,2626
1350,Brewarrina,NSW,"Brewarrina Central School, Bourke Street, Postcode-2839","CentralCommunity School (Coed, Kinder to Year 12)",-29.963669,146.859088,655,146,,2839
1354,Bribbaree ,NSW,"Bribbaree Public School, Weedallion St, Postcode-2594","Primary School (Coed, Kinder to Year 6)",-34.12042,147.874699,865,12,,2594
1358,Brighton-Le-Sands,NSW,"Brighton-Le-Sands Public School, 35 Crawford Road, Postcode-2216","Primary School (Coed, Kinder to Year 6)",-33.962357,151.148929,1059,753,,2216
1360,Bringelly,NSW,"Bringelly Public School, 1205 The Northern Road, Postcode-2556","Primary School (Coed, Kinder to Year 6)",-33.93791,150.730266,927,132,,2556
1361,Broadwater ,NSW,"Broadwater Public School, Pacific Hwy, Postcode-2472","Primary School (Coed, Kinder to Year 6)",-29.002773,153.437279,973,44,,2472
1363,Brocklesby,NSW,"Brocklesby Public School, 65 Main St, Postcode-2642","Primary School (Coed, Kinder to Year 6)",-35.823911,146.677989,990,17,,2642
1367,Broke ,NSW,"Broke Public School, Cochrane St, Postcode-2330","Primary School (Coed, Kinder to Year 6)",-32.744976,151.104334,942,74,,2330
1369,Broken Hill ,NSW,"Broken Hill Public School, Mica St, Postcode-2880","Primary School (Coed, Kinder to Year 6)",-31.956108,141.456502,910,186,,2880
1371,Broken Hill ,NSW,"Broken Hill North Public School, Chapple St, Postcode-2880","Primary School (Coed, Kinder to Year 6)",-31.944457,141.471518,860,254,,2880
1372,Bronte ,NSW,"Bronte Public School, Hewlett St, Postcode-2024","Primary School (Coed, Kinder to Year 6)",-33.900605,151.262011,1162,430,,2024
1377,Brooklyn ,NSW,"Brooklyn Public School, 106 Brooklyn Rd, Postcode-2083","Primary School (Coed, Kinder to Year 6)",-33.548414,151.214992,1068,84,,2083
1379,Brookvale ,NSW,"Brookvale Public School, Old Pittwater Rd, Postcode-2100","Primary School (Coed, Kinder to Year 6)",-33.761678,151.270787,1037,246,,2100
1387,Brungle ,NSW,"Brungle Public School, 2 Brungle School Rd, Postcode-2722","Primary School (Coed, Kinder to Year 6)",-35.156755,148.233572,,11,,2722
1389,Brunswick Heads ,NSW,"Brunswick Heads Public School, Fingal St, Postcode-2483","Primary School (Coed, Kinder to Year 6)",-28.541343,153.550848,1005,148,,2483
1402,Bulahdelah ,NSW,"Bulahdelah Central School, 8 Meade Street, Postcode-2423","CentralCommunity School (Coed, Kinder to Year 12)",-32.413374,152.211848,931,407,,2423
1411,Bulli ,NSW,"Bulli Public School, Haig Rd, Postcode-2516","Primary School (Coed, Kinder to Year 6)",-34.326951,150.912703,1059,192,,2516
1414,Bundanoon ,NSW,"Bundanoon Public School, Church St, Postcode-2578","Primary School (Coed, Kinder to Year 6)",-34.657878,150.300442,1039,191,,2578
1415,Bundarra,NSW,"Bundarra Central School, Bowline Street, Postcode-2359","CentralCommunity School (Coed, Kinder to Year 12)",-30.168353,151.077625,863,142,,2359
1421,Bungendore ,NSW,"Bungendore Public School, Gibraltar St, Postcode-2621","Primary School (Coed, Kinder to Year 6)",-35.255619,149.444628,1060,489,,2621
1424,Bungwahl,NSW,"Bungwahl Public School, 56 Seal Rocks Road, Postcode-2423","Primary School (Coed, Kinder to Year 6)",-32.389144,152.448558,996,41,,2423
1425,Bunnaloo,NSW,"Bunnaloo Public School, Fitzroy St, Postcode-2731","Primary School (Coed, Kinder to Year 6)",-35.786399,144.597923,1047,46,,2731
1432,Broken Hill ,NSW,"Burke Ward Public School, Rakow St, Postcode-2880","Primary School (Coed, Kinder to Year 6)",-31.960361,141.441054,911,321,,2880
1433,North Parramatta ,NSW,"Burnside Public School, 1 Masons Drive, Postcode-2151","Primary School (Coed, Kinder to Year 6)",-33.79258,151.018316,1128,236,,2151
1445,Burrawang ,NSW,"Burrawang Public School, Church St, Postcode-2577","Primary School (Coed, Kinder to Year 6)",-34.592222,150.51725,1090,31,,2577
1447,Burren Junction ,NSW,"Burren Junction Public School, Alma St, Postcode-2386","Primary School (Coed, Kinder to Year 6)",-30.102686,148.964703,998,54,,2386
1449,Burringbar ,NSW,"Burringbar Public School, 59 Burringbar Road, Postcode-2483","Primary School (Coed, Kinder to Year 6)",-28.436645,153.466738,978,64,,2483
1453,Burrumbuttock ,NSW,"Burrumbuttock Public School, Howlong Rd, Postcode-2642","Primary School (Coed, Kinder to Year 6)",-35.837489,146.800049,1014,31,,2642
1455,Burwood,NSW,"Burwood Public School, 1-3 Conder Street, Postcode-2134","Primary School (Coed, Kinder to Year 6)",-33.8768,151.098987,1090,629,,2134
1460,Buxton ,NSW,"Buxton Public School, Hassall Rd, Postcode-2571","Primary School (Coed, Kinder to Year 6)",-34.246971,150.544826,961,164,,2571
1470,Byron Bay ,NSW,"Byron Bay Public School, 17 Kingsley St, Postcode-2481","Primary School (Coed, Kinder to Year 6)",-28.647416,153.614826,1062,667,,2481
1471,Cabbage Tree Island,NSW,"Cabbage Tree Island Public School, Cabbage Tree Island Rd, Postcode-2477","Primary School (Coed, Kinder to Year 6)",-28.98367,153.457788,,14,,2477
1472,Cabramatta ,NSW,"Cabramatta Public School, Levuka St, Postcode-2166","Primary School (Coed, Kinder to Year 6)",-33.895823,150.942629,933,727,,2166
1481,Cambewarra ,NSW,"Cambewarra Public School, Kalinga St, Postcode-2540","Primary School (Coed, Kinder to Year 6)",-34.821537,150.556043,1008,307,,2540
1482,Camden ,NSW,"Camden Public School, John St, Postcode-2570","Primary School (Coed, Kinder to Year 6)",-34.051998,150.693236,1027,295,,2570
1483,Newtown ,NSW,"Camdenville Public School, Laura St, Postcode-2042","Primary School (Coed, Kinder to Year 6)",-33.906146,151.175741,1098,256,,2042
1485,Cammeray ,NSW,"Cammeray Public School, Palmer St, Postcode-2062","Primary School (Coed, Kinder to Year 6)",-33.820422,151.211542,1184,956,,2062
1486,Campbelltown ,NSW,"Campbelltown Public School, Lithgow St, Postcode-2560","Primary School (Coed, Kinder to Year 6)",-34.070109,150.815634,953,322,,2560
1488,Campsie,NSW,"Campsie Public School, Evaline St, Postcode-2194","Primary School (Coed, Kinder to Year 6)",-33.911863,151.104846,1022,760,,2194
1490,Candelo ,NSW,"Candelo Public School, William St, Postcode-2550","Primary School (Coed, Kinder to Year 6)",-36.768392,149.695674,959,65,,2550
1492,Lismore ,NSW,"Caniaba Public School, Caniaba Rd, Postcode-2480","Primary School (Coed, Kinder to Year 6)",-28.830799,153.231317,990,76,,2480
1494,Canley Vale ,NSW,"Canley Vale Public School, Canley Vale Rd, Postcode-2166","Primary School (Coed, Kinder to Year 6)",-33.88676,150.937632,945,858,,2166
1495,Orange ,NSW,"Canobolas Public School, Canobolas Rd, Postcode-2800","Primary School (Coed, Kinder to Year 6)",-33.305942,149.04621,1040,109,,2800
1497,Canterbury ,NSW,"Canterbury Public School, Church St, Postcode-2193","Primary School (Coed, Kinder to Year 6)",-33.908761,151.122306,1066,307,,2193
1498,Saratoga,NSW,"Brisbania Public School, 1 High Street, Postcode-2251","Primary School (Coed, Kinder to Year 6)",-33.478822,151.357294,1026,458,,2251
1499,Uranquinty,NSW,"Uranquinty Public School, Pearson Street, Postcode-2652","Primary School (Coed, Kinder to Year 6)",-35.188793,147.249486,960,31,,2652
1501,Capertee ,NSW,"Capertee Public School, Castlereagh Hwy, Postcode-2846","Primary School (Coed, Kinder to Year 6)",-33.147074,149.985922,1089,14,,2846
1502,Captains Flat,NSW,"Captains Flat Public School, 14 Montgomery St, Postcode-2623","Primary School (Coed, Kinder to Year 6)",-35.587192,149.450147,940,40,,2623
1503,Caragabal ,NSW,"Caragabal Public School, Marsden & Wheoga Sts, Postcode-2810","Primary School (Coed, Kinder to Year 6)",-33.84532,147.744452,1013,26,,2810
1504,Carcoar ,NSW,"Carcoar Public School, Icely St, Postcode-2791","Primary School (Coed, Kinder to Year 6)",-33.612326,149.142432,1069,10,,2791
1505,Cardiff ,NSW,"Cardiff Public School, Macquarie Rd, Postcode-2285","Primary School (Coed, Kinder to Year 6)",-32.945779,151.657754,967,217,,2285
1506,Cargo ,NSW,"Cargo Public School, Hutton St, Postcode-2800","Primary School (Coed, Kinder to Year 6)",-33.427612,148.807697,889,19,,2800
1507,Carinda ,NSW,"Carinda Public School, Macnamara St, Postcode-2831","Primary School (Coed, Kinder to Year 6)",-30.461882,147.687555,998,17,,2831
1508,Caringbah ,NSW,"Caringbah Public School, Port Hacking Rd, Postcode-2229","Primary School (Coed, Kinder to Year 6)",-34.053433,151.122988,1069,258,,2229
1512,Bexley ,NSW,"Carlton Public School, 60 Cameron St, Postcode-2207","Primary School (Coed, Kinder to Year 6)",-33.963496,151.12246,1051,870,,2207
1513,Carlton ,NSW,"Carlton South Public School, Jubilee Ave, Postcode-2218","Primary School (Coed, Kinder to Year 6)",-33.973045,151.128287,1073,606,,2218
1515,Carool,NSW,"Carool Public School, 411 Carool Rd, Postcode-2486","Primary School (Coed, Kinder to Year 6)",-28.229959,153.4293,980,14,,2486
1517,Carrathool,NSW,"Carrathool Public School, Glover St, Postcode-2711","Primary School (Coed, Kinder to Year 6)",-34.409166,145.431622,918,7,,2711
1518,Carrington ,NSW,"Carrington Public School, Young St, Postcode-2294","Primary School (Coed, Kinder to Year 6)",-32.912446,151.765328,977,99,,2294
1520,Carroll ,NSW,"Carroll Public School, David St, Postcode-2340","Primary School (Coed, Kinder to Year 6)",-30.986074,150.447096,766,21,,2340
1526,Casino ,NSW,"Casino Public School, 31 Walker St, Postcode-2470","Primary School (Coed, Kinder to Year 6)",-28.867384,153.048053,883,685,,2470
1527,Cassilis,NSW,"Cassilis Public School, Coolah Rd, Postcode-2329","Primary School (Coed, Kinder to Year 6)",-32.004552,149.978075,911,16,,2329
1529,Castle Hill ,NSW,"Castle Hill Public School, Les Shore Place, Postcode-2154","Primary School (Coed, Kinder to Year 6)",-33.727887,151.004663,1114,920,,2154
1535,Cattai ,NSW,"Cattai Public School, 487 Cattai Rd, Postcode-2756","Primary School (Coed, Kinder to Year 6)",-33.558762,150.906904,996,58,,2756
1537,Camden ,NSW,"Cawdor Public School, 865 Cawdor Rd, Postcode-2570","Primary School (Coed, Kinder to Year 6)",-34.109711,150.673727,983,76,,2570
1542,Cessnock ,NSW,"Cessnock Public School, Rawson St, Postcode-2325","Primary School (Coed, Kinder to Year 6)",-32.840405,151.363808,886,296,,2325
1543,Cessnock ,NSW,"Cessnock East Public School, Old Maitland Rd, Postcode-2325","Primary School (Coed, Kinder to Year 6)",-32.827606,151.369746,858,229,,2325
1545,Cessnock ,NSW,"Cessnock West Public School, Wollombi & Campbell Sts, Postcode-2325","Primary School (Coed, Kinder to Year 6)",-32.838387,151.344863,913,393,,2325
1547,Wollomombi,NSW,"Chandler Public School, Grafton Rd, Postcode-2350","Primary School (Coed, Kinder to Year 6)",-30.518553,152.053551,939,22,,2350
1548,The Channon ,NSW,"The Channon Public School, Standing St, Postcode-2480","Primary School (Coed, Kinder to Year 6)",-28.675099,153.280288,1091,45,,2480
1550,Charlestown ,NSW,"Charlestown Public School, Frederick St, Postcode-2290","Primary School (Coed, Kinder to Year 6)",-32.965494,151.697486,998,139,,2290
1551,Boomerang Beach ,NSW,"Pacific Palms Public School, Boomerang Drive, Postcode-2428","Primary School (Coed, Kinder to Year 6)",-32.341023,152.539306,1004,324,,2428
1553,Chatsworth,NSW,"Chatsworth Island Public School, Chatsworth Island Rd, Postcode-2469","Primary School (Coed, Kinder to Year 6)",-29.387954,153.231645,1002,64,,2469
1558,Chillingham ,NSW,"Chillingham Public School, 1420 Numinbah Rd, Postcode-2484","Primary School (Coed, Kinder to Year 6)",-28.311937,153.275569,923,40,,2484
1560,Chipping Norton ,NSW,"Chipping Norton Public School, Central Ave, Postcode-2170","Primary School (Coed, Kinder to Year 6)",-33.909108,150.96085,1020,333,,2170
1564,Clarence Town ,NSW,"Clarence Town Public School, Queen St, Postcode-2321","Primary School (Coed, Kinder to Year 6)",-32.588731,151.777207,932,126,,2321
1566,Earlwood,NSW,"Clemton Park Public School, 185 Bexley Rd, Postcode-2206","Primary School (Coed, Kinder to Year 6)",-33.929708,151.108423,1050,587,,2206
1573,Waverley ,NSW,"Clovelly Public School, Arden St, Postcode-2024","Primary School (Coed, Kinder to Year 6)",-33.907431,151.26028,1163,582,,2024
1574,Clunes ,NSW,"Clunes Public School, Walker St, Postcode-2480","Primary School (Coed, Kinder to Year 6)",-28.724778,153.408852,1061,87,,2480
1578,Cobar ,NSW,"Cobar Public School, 6-8 Blakey St, Postcode-2835","Primary School (Coed, Kinder to Year 6)",-31.502199,145.836609,915,257,,2835
1579,Cobargo,NSW,"Cobargo Public School, Wandella Rd, Postcode-2550","Primary School (Coed, Kinder to Year 6)",-36.386942,149.882818,948,74,,2550
1580,Cobbitty ,NSW,"Cobbitty Public School, Cobbitty Rd, Postcode-2570","Primary School (Coed, Kinder to Year 6)",-34.0159,150.685938,1028,250,,2570
1583,Coffee Camp ,NSW,"Coffee Camp Public School, Nimbin Rd, Postcode-2480","Primary School (Coed, Kinder to Year 6)",-28.662664,153.220638,1033,63,,2480
1584,Coffs Harbour,NSW,"Coffs Harbour Public School, 7 Salamander Street, Postcode-2450","Primary School (Coed, Kinder to Year 6)",-30.30196,153.120372,880,428,,2450
1587,Coledale ,NSW,"Coledale Public School, Lawrence Hargrave Drive, Postcode-2515","Primary School (Coed, Kinder to Year 6)",-34.289546,150.947366,1112,141,,2515
1589,Collarenebri,NSW,"Collarenebri Central School, High St, Postcode-2833","CentralCommunity School (Coed, Kinder to Year 12)",-29.543823,148.578086,643,87,,2833
1590,Collector,NSW,"Collector Public School, Lorn St, Postcode-2581","Primary School (Coed, Kinder to Year 6)",-34.914221,149.433144,1041,28,,2581
1591,Collingullie ,NSW,"Collingullie Public School, Urana St, Postcode-2652","Primary School (Coed, Kinder to Year 6)",-35.09019,147.127156,995,28,,2652
1593,Collins Creek ,NSW,"Collins Creek Public School, 480 Collins Valley Road, Postcode-2474","Primary School (Coed, Kinder to Year 6)",-28.489297,153.022547,1076,14,,2474
1596,Mount Druitt ,NSW,"Colyton Public School, Nelson St, Postcode-2770","Primary School (Coed, Kinder to Year 6)",-33.777199,150.81316,1000,728,,2770
1601,Comboyne ,NSW,"Comboyne Public School, Hill St, Postcode-2429","Primary School (Coed, Kinder to Year 6)",-31.605308,152.472736,905,28,,2429
1604,Kurrajong,NSW,"Comleroy Road Public School, McMahons Rd, Postcode-2758","Primary School (Coed, Kinder to Year 6)",-33.506475,150.69763,1010,136,,2758
1605,Como ,NSW,"Como Public School, Genoa St, Postcode-2226","Primary School (Coed, Kinder to Year 6)",-34.001832,151.069127,1076,101,,2226
1606,Conargo ,NSW,"Conargo Public School, Deniliquin-Wagga Wagga Rd, Postcode-2710","Primary School (Coed, Kinder to Year 6)",-35.305269,145.17886,963,22,,2710
1607,Concord ,NSW,"Concord Public School, Burwood Rd, Postcode-2137","Primary School (Coed, Kinder to Year 6)",-33.863224,151.106944,1074,275,,2137
1608,Concord West ,NSW,"Concord West Public School, Concord Rd, Postcode-2138","Primary School (Coed, Kinder to Year 6)",-33.839613,151.087317,1107,389,,2138
1609,Condobolin,NSW,"Condobolin Public School, Molong Street, Postcode-2877","Primary School (Coed, Kinder to Year 6)",-33.085514,147.149077,818,271,,2877
1611,Condong ,NSW,"Condong Public School, McLeod St, Postcode-2484","Primary School (Coed, Kinder to Year 6)",-28.309674,153.434424,965,59,,2484
1612,Coniston ,NSW,"Coniston Public School, Auburn St, Postcode-2500","Primary School (Coed, Kinder to Year 6)",-34.439023,150.887435,973,208,,2500
1613,South Hurstville,NSW,"Connells Point Public School, Riverview Ave, Postcode-2221","Primary School (Coed, Kinder to Year 6)",-33.984689,151.100306,1103,515,,2221
1615,Lithgow ,NSW,"Cooerwull Public School, 319 Main St, Postcode-2790","Primary School (Coed, Kinder to Year 6)",-33.484053,150.142093,905,328,,2790
1616,Coogee ,NSW,"Coogee Public School, Byron St & Coogee Bay Rd, Postcode-2034","Primary School (Coed, Kinder to Year 6)",-33.920819,151.249846,1152,606,,2034
1621,Coolah ,NSW,"Coolah Central School, Binnia St, Postcode-2843","CentralCommunity School (Coed, Kinder to Year 12)",-31.821024,149.723624,931,252,,2843
1624,Coolamon ,NSW,"Coolamon Central School, 75 Methul St, Postcode-2701","CentralCommunity School (Coed, Kinder to Year 12)",-34.811904,147.201398,953,322,,2701
1625,Shoalhaven Heads,NSW,"Shoalhaven Heads Public School, 47 Ravenscliffe Road, Postcode-2535","Primary School (Coed, Kinder to Year 6)",-34.853167,150.740088,999,189,,2535
1627,Coolongolook ,NSW,"Coolongolook Public School, Pacific Hwy, Postcode-2423","Primary School (Coed, Kinder to Year 6)",-32.222798,152.318838,838,31,,2423
1628,Cooma ,NSW,"Cooma Public School, Commissioner St, Postcode-2630","Primary School (Coed, Kinder to Year 6)",-36.237474,149.125034,973,251,,2630
1630,Coonabarabran ,NSW,"Coonabarabran Public School, Cnr John St & Newell Hwy, Postcode-2357","Primary School (Coed, Kinder to Year 6)",-31.280039,149.282061,895,306,,2357
1631,Coonamble,NSW,"Coonamble Public School, Bertram Street, Postcode-2829","Primary School (Coed, Kinder to Year 6)",-30.958363,148.387024,711,193,,2829
1632,Coopernook ,NSW,"Coopernook Public School, Macquarie St, Postcode-2426","Primary School (Coed, Kinder to Year 6)",-31.827512,152.607874,959,51,,2426
1634,Coorabell ,NSW,"Coorabell Public School, Mango Lane, Postcode-2479","Primary School (Coed, Kinder to Year 6)",-28.625696,153.487492,1092,131,,2479
1635,Cooranbong ,NSW,"Cooranbong Public School, Government Rd, Postcode-2265","Primary School (Coed, Kinder to Year 6)",-33.0805,151.441793,971,195,,2265
1636,Cootamundra,NSW,"Cootamundra Public School, Cooper St, Postcode-2590","Primary School (Coed, Kinder to Year 6)",-34.638914,148.026809,959,298,,2590
1642,Copmanhurst ,NSW,"Copmanhurst Public School, Prescott St, Postcode-2460","Primary School (Coed, Kinder to Year 6)",-29.584663,152.775537,898,65,,2460
1644,Coraki ,NSW,"Coraki Public School, Adam St, Postcode-2471","Primary School (Coed, Kinder to Year 6)",-28.992589,153.282641,806,94,,2471
1647,Coramba ,NSW,"Coramba Public School, 6 Short St, Postcode-2450","Primary School (Coed, Kinder to Year 6)",-30.221578,153.011513,891,37,,2450
1654,Corindi Beach ,NSW,"Corindi Public School, Coral St, Postcode-2456","Primary School (Coed, Kinder to Year 6)",-30.021469,153.194234,929,205,,2456
1656,Corndale ,NSW,"Corndale Public School, Corndale Rd, Postcode-2480","Primary School (Coed, Kinder to Year 6)",-28.71315,153.362489,1035,19,,2480
1658,Corowa ,NSW,"Corowa Public School, 244 Honour Avenue, Postcode-2646","Primary School (Coed, Kinder to Year 6)",-35.992545,146.3949,959,253,,2646
1659,Corowa ,NSW,"Corowa South Public School, 158 Hume St, Postcode-2646","Primary School (Coed, Kinder to Year 6)",-36.020988,146.376176,953,52,,2646
1661,Corrimal,NSW,"Corrimal Public School, Princes Hwy, Postcode-2518","Primary School (Coed, Kinder to Year 6)",-34.367371,150.899022,991,184,,2518
1666,Coutts Crossing,NSW,"Coutts Crossing Public School, 1570 Armidale Road, Postcode-2460","Primary School (Coed, Kinder to Year 6)",-29.832063,152.889484,874,87,,2460
1668,Cowan ,NSW,"Cowan Public School, Chandler Ave, Postcode-2081","Primary School (Coed, Kinder to Year 6)",-33.588808,151.168843,1045,54,,2081
1670,Cowper ,NSW,"Cowper Public School, Clarence & Samuel Sts, Postcode-2460","Primary School (Coed, Kinder to Year 6)",-29.56956,153.077731,965,37,,2460
1671,Cowra ,NSW,"Cowra Public School, Vaux St, Postcode-2794","Primary School (Coed, Kinder to Year 6)",-33.836028,148.68992,902,381,,2794
1674,Crabbes Creek ,NSW,"Crabbes Creek Public School, Crabbes Creek Rd, Postcode-2483","Primary School (Coed, Kinder to Year 6)",-28.456004,153.496575,1024,38,,2483
1681,Crescent Head ,NSW,"Crescent Head Public School, Pacific St, Postcode-2440","Primary School (Coed, Kinder to Year 6)",-31.188089,152.970345,975,192,,2440
1682,Cronulla ,NSW,"Cronulla Public School, 18-24 Burraneer Bay Rd, Postcode-2230","Primary School (Coed, Kinder to Year 6)",-34.054077,151.14773,1066,342,,2230
1684,Crookwell ,NSW,"Crookwell Public School, Denison St, Postcode-2583","Primary School (Coed, Kinder to Year 6)",-34.459938,149.469806,963,218,,2583
1685,Crossmaglen,NSW,"Crossmaglen Public School, 384 Crossmaglen Rd, Postcode-2441","Primary School (Coed, Kinder to Year 6)",-30.365945,152.981586,974,20,,2441
1688,Buronga ,NSW,"Buronga Public School, Chapman St, Postcode-2739","Primary School (Coed, Kinder to Year 6)",-34.169471,142.181315,861,95,,2739
1690,Crystal Creek,NSW,"Crystal Creek Public School, RMB 321 Numinbah Road, Postcode-2484","Primary School (Coed, Kinder to Year 6)",-28.31214,153.32596,991,90,,2484
1695,Cudal ,NSW,"Cudal Public School, Toogong St, Postcode-2864","Primary School (Coed, Kinder to Year 6)",-33.287099,148.740307,1021,67,,2864
1696,Cudgen ,NSW,"Cudgen Public School, 11 Collier Street, Postcode-2487","Primary School (Coed, Kinder to Year 6)",-28.262592,153.555416,968,188,,2487
1698,Culcairn ,NSW,"Culcairn Public School, Balfour St, Postcode-2660","Primary School (Coed, Kinder to Year 6)",-35.668284,147.039992,969,111,,2660
1700,Cullen Bullen ,NSW,"Cullen Bullen Public School, 15-23 Castlereagh Hwy, Postcode-2790","Primary School (Coed, Kinder to Year 6)",-33.299877,150.032317,849,27,,2790
1707,Cumnock,NSW,"Cumnock Public School, Railway Pde, Postcode-2867","Primary School (Coed, Kinder to Year 6)",-32.931277,148.749492,946,52,,2867
1708,Cundletown ,NSW,"Cundletown Public School, High St, Postcode-2430","Primary School (Coed, Kinder to Year 6)",-31.899733,152.522008,934,311,,2430
1712,Curlewis ,NSW,"Curlewis Public School, Goran St, Postcode-2381","Primary School (Coed, Kinder to Year 6)",-31.117149,150.263304,793,37,,2381
1714,Currabubula ,NSW,"Currabubula Public School, Bolton St, Postcode-2342","Primary School (Coed, Kinder to Year 6)",-31.262787,150.735709,954,30,,2342
1722,Dalgety,NSW,"Dalgety Public School, Cooma St, Postcode-2628","Primary School (Coed, Kinder to Year 6)",-36.502746,148.836675,1002,29,,2628
1723,Dalton ,NSW,"Dalton Public School, Jobson St, Postcode-2581","Primary School (Coed, Kinder to Year 6)",-34.720369,149.17882,1068,12,,2581
1727,Horsley,NSW,"Dapto Public School, 48-66 Sierra Drive, Postcode-2530","Primary School (Coed, Kinder to Year 6)",-34.496129,150.796948,991,682,,2530
1732,Dareton ,NSW,"Dareton Public School, Matong St, Postcode-2717","Primary School (Coed, Kinder to Year 6)",-34.091148,142.040358,549,58,,2717
1735,Chippendale ,NSW,"Darlington Public School, Golden Grove St, Postcode-2008","Primary School (Coed, Kinder to Year 6)",-33.892638,151.18939,1059,228,,2008
1736,Darlington Point ,NSW,"Darlington Point Public School, Hay Rd, Postcode-2706","Primary School (Coed, Kinder to Year 6)",-34.572807,145.993878,845,97,,2706
1740,Leeville ,NSW,"Leeville Public School, 9375 Summerland Way, Postcode-2470","Primary School (Coed, Kinder to Year 6)",-28.930843,153.003537,937,44,,2470
1742,Deepwater ,NSW,"Deepwater Public School, Young St, Postcode-2371","Primary School (Coed, Kinder to Year 6)",-29.442908,151.848086,874,16,,2371
1744,Dee Why ,NSW,"Dee Why Public School, Regent St, Postcode-2099","Primary School (Coed, Kinder to Year 6)",-33.749025,151.285209,1012,310,,2099
1745,Delegate ,NSW,"Delegate Public School, Campbell St, Postcode-2633","Primary School (Coed, Kinder to Year 6)",-37.041739,148.937215,957,31,,2633
1747,Delungra ,NSW,"Delungra Public School, Wallangra St, Postcode-2403","Primary School (Coed, Kinder to Year 6)",-29.650936,150.830977,861,32,,2403
1749,Denman ,NSW,"Denman Public School, Paxton St, Postcode-2328","Primary School (Coed, Kinder to Year 6)",-32.385734,150.686009,934,178,,2328
1760,Doonside,NSW,"Doonside Public School, Cnr Kildare Road and School Parade, Postcode-2767","Primary School (Coed, Kinder to Year 6)",-33.764557,150.870497,886,224,,2767
1762,Dora Creek ,NSW,"Dora Creek Public School, Cooranbong Rd, Postcode-2264","Primary School (Coed, Kinder to Year 6)",-33.07902,151.499217,955,113,,2264
1768,Double Bay ,NSW,"Double Bay Public School, William St, Postcode-2028","Primary School (Coed, Kinder to Year 6)",-33.874856,151.240894,1144,351,,2028
1769,Doubtful Creek,NSW,"Doubtful Creek Public School, 2436 Sextonville Rd, Postcode-2470","Primary School (Coed, Kinder to Year 6)",-28.724771,152.875958,960,11,,2470
1770,Douglas Park ,NSW,"Douglas Park Public School, 111 Camden Rd, Postcode-2569","Primary School (Coed, Kinder to Year 6)",-34.179484,150.713038,953,153,,2569
1771,Drake,NSW,"Drake Public School, Allison Street, Postcode-2469","Primary School (Coed, Kinder to Year 6)",-28.928798,152.374099,890,31,,2469
1774,Drummoyne ,NSW,"Drummoyne Public School, Rawson Ave, Postcode-2047","Primary School (Coed, Kinder to Year 6)",-33.856073,151.153035,1145,702,,2047
1775,Dubbo ,NSW,"Dubbo Public School, 181 Darling St, Postcode-2830","Primary School (Coed, Kinder to Year 6)",-32.248749,148.60541,990,504,,2830
1776,Dubbo ,NSW,"Dubbo North Public School, Fitzroy St, Postcode-2830","Primary School (Coed, Kinder to Year 6)",-32.24168,148.615776,821,259,,2830
1778,Dudley ,NSW,"Dudley Public School, Ocean & Boundary Sts, Postcode-2290","Primary School (Coed, Kinder to Year 6)",-32.989387,151.716816,1095,262,,2290
1780,Lismore ,NSW,"Lismore Public School, Pound St, Postcode-2480","Primary School (Coed, Kinder to Year 6)",-28.814289,153.2909,936,326,,2480
1788,Dundurrabin,NSW,"Dundurrabin Public School, 70 Mount St, Postcode-2453","Primary School (Coed, Kinder to Year 6)",-30.189493,152.542649,844,24,,2453
1789,Dunedoo ,NSW,"Dunedoo Central School, Digilah St, Postcode-2844","CentralCommunity School (Coed, Kinder to Year 12)",-32.018308,149.392212,922,196,,2844
1791,Dungay,NSW,"Dungay Public School, 305 Tomewin Rd, Postcode-2484","Primary School (Coed, Kinder to Year 6)",-28.289681,153.382374,980,53,,2484
1792,Dungog ,NSW,"Dungog Public School, 9 Chapman St, Postcode-2420","Primary School (Coed, Kinder to Year 6)",-32.405233,151.757709,953,279,,2420
1793,Dungowan,NSW,"Dungowan Public School, 137 Olgunbil Road, Postcode-2340","Primary School (Coed, Kinder to Year 6)",-31.220126,151.13269,932,27,,2340
1797,Dunoon ,NSW,"Dunoon Public School, James St, Postcode-2480","Primary School (Coed, Kinder to Year 6)",-28.686735,153.315495,1056,80,,2480
1799,Dural ,NSW,"Dural Public School, 622 Old Northern Rd, Postcode-2158","Primary School (Coed, Kinder to Year 6)",-33.686057,151.026394,1105,426,,2158
1801,Duranbah ,NSW,"Duranbah Public School, 105 Duranbah Rd, Postcode-2487","Primary School (Coed, Kinder to Year 6)",-28.289121,153.516888,901,25,,2487
1802,Duri ,NSW,"Duri Public School, Dungowan Rd, Postcode-2344","Primary School (Coed, Kinder to Year 6)",-31.221359,150.829939,926,41,,2344
1803,Durrumbul ,NSW,"Durrumbul Public School, Durrumbul Rd, Postcode-2482","Primary School (Coed, Kinder to Year 6)",-28.523263,153.444576,1071,35,,2482
1807,Earlwood ,NSW,"Earlwood Public School, Homer St, Postcode-2206","Primary School (Coed, Kinder to Year 6)",-33.928982,151.12238,1095,637,,2206
1808,Eastern Creek,NSW,"Eastern Creek Public School, 200 Rooty Hill Road South, Postcode-2766","Primary School (Coed, Kinder to Year 6)",-33.787013,150.852624,985,298,,2766
1809,Panania,NSW,"Panania Public School, 21 Lawler Street, Postcode-2213","Primary School (Coed, Kinder to Year 6)",-33.965972,150.99946,1046,466,,2213
1811,Dubbo ,NSW,"Dubbo South Public School, Fitzroy St, Postcode-2830","Primary School (Coed, Kinder to Year 6)",-32.263126,148.609749,929,672,,2830
1813,Ebenezer ,NSW,"Ebenezer Public School, 531 Sackville Rd, Postcode-2756","Primary School (Coed, Kinder to Year 6)",-33.530917,150.876774,980,116,,2756
1814,Ebor ,NSW,"Ebor Public School, Ebor St, Postcode-2453","Primary School (Coed, Kinder to Year 6)",-30.403293,152.349882,899,10,,2453
1816,Eden ,NSW,"Eden Public School, Imlay St, Postcode-2551","Primary School (Coed, Kinder to Year 6)",-37.063271,149.906688,904,271,,2551
1822,Congewai,NSW,"Congewai Public School, 605 Congewai Road, Postcode-2325","Primary School (Coed, Kinder to Year 6)",-32.958736,151.273875,953,13,,2325
1823,Eglinton ,NSW,"Eglinton Public School, Alexander St, Postcode-2795","Primary School (Coed, Kinder to Year 6)",-33.37752,149.539343,1018,479,,2795
1824,Elands ,NSW,"Elands Public School, Wingham-Ellenborough Rd, Postcode-2429","Primary School (Coed, Kinder to Year 6)",-31.619383,152.292291,878,18,,2429
1826,Ellalong,NSW,"Ellalong Public School, Helena Street, Postcode-2325","Primary School (Coed, Kinder to Year 6)",-32.914749,151.311974,940,118,,2325
1830,Ellerston,NSW,"Ellerston Public School, School Road, Postcode-2337","Primary School (Coed, Kinder to Year 6)",-31.81773,151.304369,1002,23,,2337
1835,Eltham ,NSW,"Eltham Public School, Boatharbour Rd, Postcode-2480","Primary School (Coed, Kinder to Year 6)",-28.763663,153.408541,1081,65,,2480
1838,Emmaville ,NSW,"Emmaville Central School, Park Rd, Postcode-2371","CentralCommunity School (Coed, Kinder to Year 12)",-29.446152,151.601669,896,80,,2371
1839,Empire Bay ,NSW,"Empire Bay Public School, Empire Bay Drive, Postcode-2256","Primary School (Coed, Kinder to Year 6)",-33.504316,151.362889,1023,455,,2256
1840,Empire Vale ,NSW,"Empire Vale Public School, River Drive, Postcode-2478","Primary School (Coed, Kinder to Year 6)",-28.915114,153.506059,965,36,,2478
1841,Emu Plains ,NSW,"Emu Plains Public School, Emerald St, Postcode-2750","Primary School (Coed, Kinder to Year 6)",-33.755617,150.657739,1009,475,,2750
1844,Enfield ,NSW,"Enfield Public School, Beaumaris St, Postcode-2136","Primary School (Coed, Kinder to Year 6)",-33.888598,151.094528,1071,278,,2136
1845,Engadine ,NSW,"Engadine Public School, Waratah Rd, Postcode-2233","Primary School (Coed, Kinder to Year 6)",-34.06335,151.012431,1041,332,,2233
1849,The Entrance ,NSW,"The Entrance Public School, Oakland Ave, Postcode-2261","Primary School (Coed, Kinder to Year 6)",-33.346741,151.493009,903,540,,2261
1850,Epping,NSW,"Epping Public School, 2-16 Norfolk Road, Postcode-2121","Primary School (Coed, Kinder to Year 6)",-33.770727,151.087878,1159,427,,2121
1851,Epping ,NSW,"Epping West Public School, 96 Carlingford Rd, Postcode-2121","Primary School (Coed, Kinder to Year 6)",-33.772789,151.068048,1174,1041,,2121
1856,Erina Heights ,NSW,"Erina Heights Public School, Serpentine Rd, Postcode-2260","Primary School (Coed, Kinder to Year 6)",-33.428028,151.413585,1080,339,,2260
1857,Erina ,NSW,"Woodport Public School, The Entrance Rd, Postcode-2250","Primary School (Coed, Kinder to Year 6)",-33.439347,151.37849,1013,395,,2250
1860,West Ryde ,NSW,"Ermington Public School, Winbourne St, Postcode-2114","Primary School (Coed, Kinder to Year 6)",-33.804749,151.071574,1101,447,,2114
1864,Ettalong Beach ,NSW,"Ettalong Public School, Karingi St, Postcode-2257","Primary School (Coed, Kinder to Year 6)",-33.513539,151.332702,958,532,,2257
1867,Euabalong West ,NSW,"Euabalong West Public School, Euabba St, Postcode-2877","Primary School (Coed, Kinder to Year 6)",-33.05583,146.397128,802,23,,2877
1869,Euchareena ,NSW,"Euchareena Public School, Walter St, Postcode-2866","Primary School (Coed, Kinder to Year 6)",-32.937204,149.091542,,np,,2866
1870,Eugowra ,NSW,"Eugowra Public School, Hill St, Postcode-2806","Primary School (Coed, Kinder to Year 6)",-33.423082,148.369286,912,35,,2806
1873,Eumungerie ,NSW,"Eumungerie Public School, Wheaton St, Postcode-2831","Primary School (Coed, Kinder to Year 6)",-31.951152,148.621075,816,19,,2831
1874,Eungai Creek ,NSW,"Eungai Public School, Main St, Postcode-2441","Primary School (Coed, Kinder to Year 6)",-30.832071,152.874284,939,52,,2441
1879,Eureka ,NSW,"Eureka Public School, Lismore-Brunswick River Rd, Postcode-2480","Primary School (Coed, Kinder to Year 6)",-28.687657,153.439223,1113,37,,2480
1883,Eurongilly,NSW,"Eurongilly Public School, 1323 Eurongilly Road, Postcode-2663","Primary School (Coed, Kinder to Year 6)",-34.91017,147.780957,1032,19,,2663
1885,Euston ,NSW,"Euston Public School, Sturt Hwy, Postcode-2737","Primary School (Coed, Kinder to Year 6)",-34.575588,142.744248,910,83,,2737
1886,Evans Head,NSW,"Evans River Community School, Cypress Street, Postcode-2473","CentralCommunity School (Coed, Kinder to Year 12)",-29.113492,153.424683,916,493,,2473
1890,Castle Hill ,NSW,"Excelsior Public School, Rondelay Drive, Postcode-2154","Primary School (Coed, Kinder to Year 6)",-33.740444,150.990408,1110,498,,2154
1891,Exeter ,NSW,"Exeter Public School, School Rd, Postcode-2579","Primary School (Coed, Kinder to Year 6)",-34.61612,150.321828,1070,113,,2579
1894,Maules Creek,NSW,"Fairfax Public School, Maules Creek, Postcode-2382","Primary School (Coed, Kinder to Year 6)",-30.493351,150.131265,1016,12,,2382
1895,Fairfield ,NSW,"Fairfield Public School, 68-82 Smart St, Postcode-2165","Primary School (Coed, Kinder to Year 6)",-33.866847,150.955409,912,560,,2165
1896,Fairfield West ,NSW,"Fairfield West Public School, Palmerston Rd, Postcode-2165","Primary School (Coed, Kinder to Year 6)",-33.868037,150.924762,943,732,,2165
1898,Fairy Meadow ,NSW,"Fairy Meadow Public School, Princes Hwy, Postcode-2519","Primary School (Coed, Kinder to Year 6)",-34.390469,150.892302,987,374,,2519
1901,Falls Creek ,NSW,"Falls Creek Public School, 26 Vidler St, Postcode-2540","Primary School (Coed, Kinder to Year 6)",-34.965439,150.593403,894,49,,2540
1904,Fassifern,NSW,"Fassifern Public School, 9 Miller Road, Postcode-2283","Primary School (Coed, Kinder to Year 6)",-32.983398,151.582769,896,54,,2283
1915,Fingal Head ,NSW,"Fingal Head Public School, 100 Letitia Rd, Postcode-2487","Primary School (Coed, Kinder to Year 6)",-28.196814,153.565122,871,42,,2487
1920,Five Dock ,NSW,"Five Dock Public School, Henry St, Postcode-2046","Primary School (Coed, Kinder to Year 6)",-33.866859,151.127318,1080,411,,2046
1921,Lord Howe Island ,NSW,"Lord Howe Island Central School, Lagoon Rd, Postcode-2898","CentralCommunity School (Coed, Kinder to Year 12)",-31.530072,159.069032,1052,30,,2898
1926,Forbes,NSW,"Forbes Public School, Lachlan St, Postcode-2871","Primary School (Coed, Kinder to Year 6)",-33.387948,148.006385,947,294,,2871
1930,Forest Hill,NSW,"Forest Hill Public School, Sturt Hwy, Postcode-2651","Primary School (Coed, Kinder to Year 6)",-35.147875,147.467,943,239,,2651
1932,Forest Lodge ,NSW,"Forest Lodge Public School, Bridge Rd, Postcode-2037","Primary School (Coed, Kinder to Year 6)",-33.882169,151.181597,1149,323,,2037
1936,Forster ,NSW,"Forster Public School, Head St, Postcode-2428","Primary School (Coed, Kinder to Year 6)",-32.18247,152.524246,936,761,,2428
1937,Sydney ,NSW,"Fort Street Public School, Observatory Hill, Postcode-2000","Primary School (Coed, Kinder to Year 6)",-33.860427,151.204871,1118,177,,2000
1943,Frederickton ,NSW,"Frederickton Public School, Great North Rd, Postcode-2440","Primary School (Coed, Kinder to Year 6)",-31.033583,152.879353,903,151,,2440
1944,Freemans Reach,NSW,"Freemans Reach Public School, 395 Kurmond Road, Postcode-2756","Primary School (Coed, Kinder to Year 6)",-33.558697,150.799309,976,189,,2756
1946,Frenchs Forest ,NSW,"Frenchs Forest Public School, Ann St, Postcode-2086","Primary School (Coed, Kinder to Year 6)",-33.751516,151.224695,1099,298,,2086
1952,Galston ,NSW,"Galston Public School, School Rd, Postcode-2159","Primary School (Coed, Kinder to Year 6)",-33.648197,151.04517,1068,264,,2159
1954,Ganmain ,NSW,"Ganmain Public School, Langham St, Postcode-2702","Primary School (Coed, Kinder to Year 6)",-34.796923,147.040034,874,30,,2702
1956,Garah ,NSW,"Garah Public School, Ashley & Benarba Sts, Postcode-2405","Primary School (Coed, Kinder to Year 6)",-29.077177,149.634928,1016,17,,2405
1969,Gerogery ,NSW,"Gerogery Public School, East Gerogery Rd, Postcode-2642","Primary School (Coed, Kinder to Year 6)",-35.83213,146.998143,964,12,,2642
1971,Gerringong ,NSW,"Gerringong Public School, Archibald Rd, Postcode-2534","Primary School (Coed, Kinder to Year 6)",-34.749384,150.821499,1051,418,,2534
1972,Geurie,NSW,"Geurie Public School, Narragal Street, Postcode-2818","Primary School (Coed, Kinder to Year 6)",-32.3961,148.82945,912,42,,2818
1974,Sandy Hollow,NSW,"Sandy Hollow Public School, 1581 Golden Highway, Postcode-2333","Primary School (Coed, Kinder to Year 6)",-32.336471,150.569007,948,29,,2333
1978,Gilgai ,NSW,"Gilgai Public School, Woodford Pl, Postcode-2360","Primary School (Coed, Kinder to Year 6)",-29.852694,151.115555,855,57,,2360
1979,Gilgandra ,NSW,"Gilgandra Public School, Wrigley St, Postcode-2827","Primary School (Coed, Kinder to Year 6)",-31.707981,148.66464,796,193,,2827
1982,Gillieston Heights ,NSW,"Gillieston Public School, Cnr Gillieston & Ryan Roads, Postcode-2321","Primary School (Coed, Kinder to Year 6)",-32.75232,151.530713,928,152,,2321
1986,Girilambone ,NSW,"Girilambone Public School, Vega St, Postcode-2831","Primary School (Coed, Kinder to Year 6)",-31.24967,146.908851,892,11,,2831
1988,Girraween ,NSW,"Girraween Public School, Bando Rd, Postcode-2145","Primary School (Coed, Kinder to Year 6)",-33.799711,150.950356,1098,1044,,2145
1990,Gladesville ,NSW,"Gladesville Public School, Victoria Rd, Postcode-2111","Primary School (Coed, Kinder to Year 6)",-33.832977,151.125699,1140,519,,2111
1991,Gladstone ,NSW,"Gladstone Public School, 13 Kinchela St, Postcode-2440","Primary School (Coed, Kinder to Year 6)",-31.026485,152.946508,911,39,,2440
1992,Windang ,NSW,"Windang Public School, Oakland Ave, Postcode-2528","Primary School (Coed, Kinder to Year 6)",-34.531496,150.86597,993,173,,2528
1994,Glenbrook ,NSW,"Glenbrook Public School, Woodville St, Postcode-2773","Primary School (Coed, Kinder to Year 6)",-33.765996,150.621286,1088,268,,2773
2001,Glenfield ,NSW,"Glenfield Public School, Railway Pde, Postcode-2167","Primary School (Coed, Kinder to Year 6)",-33.971005,150.896584,1039,392,,2167
2003,Glenhaven ,NSW,"Glenhaven Public School, Glenhaven Rd, Postcode-2156","Primary School (Coed, Kinder to Year 6)",-33.700792,151.002882,1098,419,,2156
2005,Glen Innes ,NSW,"Glen Innes Public School, Church St, Postcode-2370","Primary School (Coed, Kinder to Year 6)",-29.735142,151.740989,904,373,,2370
2009,Paddington ,NSW,"Glenmore Road Public School, Glenmore Rd, Postcode-2021","Primary School (Coed, Kinder to Year 6)",-33.881385,151.230233,1201,349,,2021
2012,Glenorie ,NSW,"Glenorie Public School, Old Northern Rd, Postcode-2157","Primary School (Coed, Kinder to Year 6)",-33.599444,151.008082,1034,241,,2157
2015,Glenquarry ,NSW,"Glenquarry Public School, Tourist Rd, Postcode-2576","Primary School (Coed, Kinder to Year 6)",-34.522335,150.483539,1036,27,,2576
2016,Glenreagh ,NSW,"Glenreagh Public School, Bridge & George Sts, Postcode-2450","Primary School (Coed, Kinder to Year 6)",-30.053582,152.976339,897,59,,2450
2020,Clarence Town ,NSW,"Glen William Public School, Glen William & Dungog Rds, Postcode-2321","Primary School (Coed, Kinder to Year 6)",-32.525391,151.79794,939,23,,2321
2021,Glossodia ,NSW,"Glossodia Public School, Golden Valley Drive, Postcode-2756","Primary School (Coed, Kinder to Year 6)",-33.530504,150.765471,967,238,,2756
2027,Gol Gol ,NSW,"Gol Gol Public School, William St, Postcode-2738","Primary School (Coed, Kinder to Year 6)",-34.179608,142.222652,1026,196,,2738
2033,Goodooga,NSW,"Goodooga Central School, Doyle St, Postcode-2831","CentralCommunity School (Coed, Kinder to Year 12)",-29.115865,147.455532,667,37,,2831
2035,Goolgowi ,NSW,"Goolgowi Public School, Penney St, Postcode-2652","Primary School (Coed, Kinder to Year 6)",-33.97571,145.709221,906,47,,2652
2036,Goolma ,NSW,"Goolma Public School, Gollan Rd, Postcode-2852","Primary School (Coed, Kinder to Year 6)",-32.3688,149.26901,717,9,,2852
2037,Goolmangar ,NSW,"Goolmangar Public School, Nimbin Rd, Postcode-2480","Primary School (Coed, Kinder to Year 6)",-28.709747,153.23169,1016,15,,2480
2038,Gooloogong ,NSW,"Gooloogong Public School, King St, Postcode-2805","Primary School (Coed, Kinder to Year 6)",-33.617104,148.436422,989,17,,2805
2041,Goonellabah,NSW,"Goonellabah Public School, 595 Ballina Road, Postcode-2480","Primary School (Coed, Kinder to Year 6)",-28.818329,153.322306,841,269,,2480
2042,Goonengerry,NSW,"Goonengerry Public School, Goonengerry Road, Postcode-2482","Primary School (Coed, Kinder to Year 6)",-28.609512,153.439753,1011,40,,2482
2049,West Gosford,NSW,"Gosford Public School, Faunce St West, Postcode-2250","Primary School (Coed, Kinder to Year 6)",-33.42075,151.33449,1062,525,,2250
2053,Goulburn ,NSW,"Goulburn Public School, Bourke St, Postcode-2580","Primary School (Coed, Kinder to Year 6)",-34.750563,149.717773,897,170,,2580
2054,Goulburn ,NSW,"Goulburn East Public School, Eleanor St, Postcode-2580","Primary School (Coed, Kinder to Year 6)",-34.7626,149.730388,977,151,,2580
2055,Goulburn North ,NSW,"Goulburn North Public School, Union St, Postcode-2580","Primary School (Coed, Kinder to Year 6)",-34.744579,149.735043,968,306,,2580
2056,Goulburn ,NSW,"Goulburn South Public School, Addison St, Postcode-2580","Primary School (Coed, Kinder to Year 6)",-34.76004,149.712314,936,148,,2580
2060,Grafton ,NSW,"Grafton Public School, Queen St, Postcode-2460","Primary School (Coed, Kinder to Year 6)",-29.68499,152.933325,932,681,,2460
2061,South Grafton ,NSW,"South Grafton Public School, Vere St, Postcode-2460","Primary School (Coed, Kinder to Year 6)",-29.709892,152.937126,917,596,,2460
2064,Granville ,NSW,"Granville Public School, Lena St, Postcode-2142","Primary School (Coed, Kinder to Year 6)",-33.834264,151.004671,970,569,,2142
2066,Guildford ,NSW,"Granville South Public School, Woodville Rd, Postcode-2161","Primary School (Coed, Kinder to Year 6)",-33.848289,150.995883,926,306,,2161
2068,Gravesend ,NSW,"Gravesend Public School, Gwydir St, Postcode-2401","Primary School (Coed, Kinder to Year 6)",-29.585367,150.332417,1012,37,,2401
2070,Greenethorpe ,NSW,"Greenethorpe Public School, Main St, Postcode-2809","Primary School (Coed, Kinder to Year 6)",-33.997714,148.400139,945,17,,2809
2071,West Kempsey,NSW,"Green Hill Public School, 196 River Street, Postcode-2440","Primary School (Coed, Kinder to Year 6)",-31.059616,152.802757,600,23,,2440
2075,Green Valley ,NSW,"Green Valley Public School, Green Valley Rd, Postcode-2168","Primary School (Coed, Kinder to Year 6)",-33.90074,150.868972,971,439,,2168
2076,Greenwich,NSW,"Greenwich Public School, 32 Kingslangley Rd, Postcode-2065","Primary School (Coed, Kinder to Year 6)",-33.82587,151.183252,1184,495,,2065
2082,Grenfell ,NSW,"Grenfell Public School, Melyra St, Postcode-2810","Primary School (Coed, Kinder to Year 6)",-33.892296,148.167544,967,202,,2810
2083,Gresford ,NSW,"Gresford Public School, Durham Rd, Postcode-2311","Primary School (Coed, Kinder to Year 6)",-32.427628,151.538335,904,85,,2311
2084,Greta,NSW,"Greta Public School, 2A Wyndham Street, Postcode-2334","Primary School (Coed, Kinder to Year 6)",-32.680083,151.38721,911,193,,2334
2086,Greystanes ,NSW,"Greystanes Public School, Merrylands Rd, Postcode-2145","Primary School (Coed, Kinder to Year 6)",-33.828043,150.941111,1087,730,,2145
2087,Griffith ,NSW,"Griffith Public School, Coolah St, Postcode-2680","Primary School (Coed, Kinder to Year 6)",-34.291396,146.036252,838,380,,2680
2093,Guildford ,NSW,"Guildford Public School, Apia St, Postcode-2161","Primary School (Coed, Kinder to Year 6)",-33.855821,150.981983,947,519,,2161
2094,Gulargambone ,NSW,"Gulargambone Central School, Yalgogrin St, Postcode-2828","CentralCommunity School (Coed, Kinder to Year 12)",-31.33224,148.475758,723,64,,2828
2097,Gulgong ,NSW,"Gulgong Public School, Belmore St, Postcode-2852","Primary School (Coed, Kinder to Year 6)",-32.359746,149.537692,918,288,,2852
2099,Gulmarrad,NSW,"Gulmarrad Public School, 466 Brooms Head Road, Postcode-2463","Primary School (Coed, Kinder to Year 6)",-29.489242,153.233572,961,192,,2463
2100,Gum Flat ,NSW,"Gum Flat Public School, 958 Copeton Dam Rd, Postcode-2360","Primary School (Coed, Kinder to Year 6)",-29.779563,150.979221,1037,51,,2360
2102,Gundagai ,NSW,"Gundagai Public School, William St, Postcode-2722","Primary School (Coed, Kinder to Year 6)",-35.052146,148.109174,925,159,,2722
2103,South Gundagai,NSW,"Gundagai South Public School, Luke St, Postcode-2722","Primary School (Coed, Kinder to Year 6)",-35.080802,148.103086,915,57,,2722
2104,Gundaroo ,NSW,"Gundaroo Public School, Lot St, Postcode-2620","Primary School (Coed, Kinder to Year 6)",-35.029909,149.267076,1114,98,,2620
2109,Gunnedah ,NSW,"Gunnedah Public School, Bloomfield St, Postcode-2380","Primary School (Coed, Kinder to Year 6)",-30.977491,150.256335,746,127,,2380
2111,Gunning ,NSW,"Gunning Public School, Yass St, Postcode-2581","Primary School (Coed, Kinder to Year 6)",-34.783525,149.265602,994,71,,2581
2114,Guyra ,NSW,"Guyra Central School, Marne St, Postcode-2365","CentralCommunity School (Coed, Kinder to Year 12)",-30.222577,151.677369,908,307,,2365
2115,Gwabegar ,NSW,"Gwabegar Public School, Chauvel St, Postcode-2356","Primary School (Coed, Kinder to Year 6)",-30.611489,148.974999,875,7,,2356
2116,Gymea Bay,NSW,"Gymea Bay Public School, 205A Gymea Bay Road, Postcode-2227","Primary School (Coed, Kinder to Year 6)",-34.046905,151.082825,1085,870,,2227
2117,Haberfield ,NSW,"Haberfield Public School, Denman Ave, Postcode-2045","Primary School (Coed, Kinder to Year 6)",-33.879467,151.134002,1140,649,,2045
2128,Hammondville ,NSW,"Hammondville Public School, Walder Rd, Postcode-2170","Primary School (Coed, Kinder to Year 6)",-33.947273,150.954525,1000,436,,2170
2129,Hampton ,NSW,"Hampton Public School, Jenolan Caves Rd, Postcode-2790","Primary School (Coed, Kinder to Year 6)",-33.648479,150.048925,996,8,,2790
2131,Hannam Vale ,NSW,"Hannam Vale Public School, Hannam Vale Rd, Postcode-2443","Primary School (Coed, Kinder to Year 6)",-31.712949,152.594024,1021,23,,2443
2132,Hanwood ,NSW,"Hanwood Public School, School St, Postcode-2680","Primary School (Coed, Kinder to Year 6)",-34.329726,146.04237,970,267,,2680
2133,Freshwater,NSW,"Harbord Public School, Wyadra Avenue, Postcode-2096","Primary School (Coed, Kinder to Year 6)",-33.772164,151.286531,1134,1142,,2096
2136,Hargraves ,NSW,"Hargraves Public School, Merinda St, Postcode-2850","Primary School (Coed, Kinder to Year 6)",-32.783336,149.461924,870,20,,2850
2139,Harrington ,NSW,"Harrington Public School, High St, Postcode-2427","Primary School (Coed, Kinder to Year 6)",-31.870234,152.688803,917,103,,2427
2142,Harwood,NSW,"Harwood Island Public School, 11 Morpeth St, Postcode-2465","Primary School (Coed, Kinder to Year 6)",-29.425605,153.240299,962,66,,2465
2145,Hay,NSW,"Hay Public School, 201-217 Lachlan Street, Postcode-2711","Primary School (Coed, Kinder to Year 6)",-34.506048,144.84541,929,197,,2711
2149,Heathcote ,NSW,"Heathcote Public School, Oliver St, Postcode-2233","Primary School (Coed, Kinder to Year 6)",-34.086704,151.007321,1051,301,,2233
2153,Helensburgh ,NSW,"Helensburgh Public School, Lukin St, Postcode-2508","Primary School (Coed, Kinder to Year 6)",-34.184207,150.988393,1032,472,,2508
2154,Henty ,NSW,"Henty Public School, Sladen St, Postcode-2658","Primary School (Coed, Kinder to Year 6)",-35.517474,147.031248,980,116,,2658
2155,Hermidale ,NSW,"Hermidale Public School, Mouramba St, Postcode-2831","Primary School (Coed, Kinder to Year 6)",-31.551165,146.723373,952,9,,2831
2156,Dorrigo ,NSW,"Hernani Public School, Armidale-Grafton Rd, Postcode-2453","Primary School (Coed, Kinder to Year 6)",-30.294514,152.422727,998,7,,2453
2157,Herons Creek ,NSW,"Herons Creek Public School, Pacific Hwy, Postcode-2443","Primary School (Coed, Kinder to Year 6)",-31.580394,152.729988,931,44,,2443
2161,Hill End ,NSW,"Hill End Public School, Tambaroora St, Postcode-2850","Primary School (Coed, Kinder to Year 6)",-33.034573,149.415886,1009,12,,2850
2164,Glenorie ,NSW,"Hillside Public School, Cattai Ridge Rd, Postcode-2157","Primary School (Coed, Kinder to Year 6)",-33.601784,150.976151,1055,28,,2157
2165,Hillston ,NSW,"Hillston Central School, 62-80 Moore St, Postcode-2675","CentralCommunity School (Coed, Kinder to Year 12)",-33.479904,145.54026,927,150,,2675
2166,Hill Top ,NSW,"Hill Top Public School, Linda St, Postcode-2575","Primary School (Coed, Kinder to Year 6)",-34.354826,150.491396,951,178,,2575
2167,Hinton ,NSW,"Hinton Public School, Paterson St, Postcode-2321","Primary School (Coed, Kinder to Year 6)",-32.716733,151.650674,1011,81,,2321
2170,Holbrook ,NSW,"Holbrook Public School, Albury St, Postcode-2644","Primary School (Coed, Kinder to Year 6)",-35.717853,147.318953,992,138,,2644
2171,Holgate ,NSW,"Holgate Public School, RMB 5255 Wattle Tree Rd, Postcode-2250","Primary School (Coed, Kinder to Year 6)",-33.405106,151.407722,1087,167,,2250
2172,Cowra ,NSW,"Holmwood Public School, Cowra-Carcoar Rd, Postcode-2794","Primary School (Coed, Kinder to Year 6)",-33.810597,148.756777,962,49,,2794
2173,Homebush ,NSW,"Homebush Public School, Rochester St, Postcode-2140","Primary School (Coed, Kinder to Year 6)",-33.867319,151.08523,1079,407,,2140
2177,Maitland ,NSW,"Telarah Public School, Raymond St, Postcode-2320","Primary School (Coed, Kinder to Year 6)",-32.7252,151.532379,873,438,,2320
2182,Horsley Park ,NSW,"Horsley Park Public School, The Horsley Drive, Postcode-2164","Primary School (Coed, Kinder to Year 6)",-33.840414,150.852683,972,107,,2164
2186,Howlong ,NSW,"Howlong Public School, Hawkins St, Postcode-2643","Primary School (Coed, Kinder to Year 6)",-35.979939,146.636764,985,198,,2643
2187,Hoxton Park,NSW,"Hoxton Park Public School, 99 Pacific Palms Circuit, Postcode-2171","Primary School (Coed, Kinder to Year 6)",-33.931881,150.849626,984,654,,2171
2188,Humula ,NSW,"Humula Public School, School St, Postcode-2652","Primary School (Coed, Kinder to Year 6)",-35.483339,147.760583,866,14,,2652
2189,Hunters Hill ,NSW,"Hunters Hill Public School, 17 Alexandra St, Postcode-2110","Primary School (Coed, Kinder to Year 6)",-33.835121,151.151254,1190,378,,2110
2190,Wauchope ,NSW,"Huntingdon Public School, 2876 Oxley Highway, Postcode-2446","Primary School (Coed, Kinder to Year 6)",-31.478214,152.660607,941,55,,2446
2193,Rathmines ,NSW,"Rathmines Public School, Secret Corner Rd, Postcode-2283","Primary School (Coed, Kinder to Year 6)",-33.042628,151.5899,1006,251,,2283
2197,Hurstville ,NSW,"Hurstville Public School, Forest Rd, Postcode-2220","Primary School (Coed, Kinder to Year 6)",-33.964695,151.110728,1099,1230,,2220
2198,Hurstville ,NSW,"Hurstville South Public School, Maher St, Postcode-2220","Primary School (Coed, Kinder to Year 6)",-33.972516,151.099252,1083,497,,2220
2199,Huskisson ,NSW,"Huskisson Public School, Sydney St, Postcode-2540","Primary School (Coed, Kinder to Year 6)",-35.036821,150.668104,1002,155,,2540
2201,Ilford ,NSW,"Ilford Public School, Castlereagh Hwy, Postcode-2850","Primary School (Coed, Kinder to Year 6)",-32.966702,149.855478,992,32,,2850
2203,Illabo,NSW,"Illabo Public School, 1 Layton Street, Postcode-2590","Primary School (Coed, Kinder to Year 6)",-34.814002,147.741165,1056,32,,2590
2204,Iluka,NSW,"Iluka Public School, 21-27 Charles Street, Postcode-2466","Primary School (Coed, Kinder to Year 6)",-29.404676,153.348938,947,130,,2466
2206,Ingleburn ,NSW,"Ingleburn Public School, Oxford Rd, Postcode-2565","Primary School (Coed, Kinder to Year 6)",-34.000332,150.866612,993,605,,2565
2209,Inverell ,NSW,"Inverell Public School, Henderson St, Postcode-2360","Primary School (Coed, Kinder to Year 6)",-29.773135,151.123016,889,424,,2360
2211,Woodville,NSW,"Iona Public School, 860 Paterson Rd, Postcode-2321","Primary School (Coed, Kinder to Year 6)",-32.665063,151.604218,1075,65,,2321
2212,Islington ,NSW,"Islington Public School, Hubbard St, Postcode-2296","Primary School (Coed, Kinder to Year 6)",-32.911412,151.744091,922,121,,2296
2213,Ivanhoe ,NSW,"Ivanhoe Central School, Columbus St, Postcode-2878","CentralCommunity School (Coed, Kinder to Year 12)",-32.898531,144.300978,833,24,,2878
2214,Fernleigh ,NSW,"Fernleigh Public School, 451 Fernleigh Rd, Postcode-2479","Primary School (Coed, Kinder to Year 6)",-28.76765,153.498399,1067,19,,2479
2218,Jamberoo ,NSW,"Jamberoo Public School, Churchill St, Postcode-2533","Primary School (Coed, Kinder to Year 6)",-34.644622,150.773003,1061,96,,2533
2223,Jennings,NSW,"Jennings Public School, 31 Brushabers Road, Postcode-4383","Primary School (Coed, Kinder to Year 6)",-28.927243,151.934357,889,15,,4383
2225,Jerangle,NSW,"Jerangle Public School, 2892 Jerangle Road, Postcode-2630","Primary School (Coed, Kinder to Year 6)",-35.871132,149.364268,1016,11,,2630
2226,Jerilderie ,NSW,"Jerilderie Public School, 31 Bolton St, Postcode-2716","Primary School (Coed, Kinder to Year 6)",-35.354598,145.728865,990,43,,2716
2231,Jerrys Plains ,NSW,"Jerrys Plains Public School, Doyle St, Postcode-2330","Primary School (Coed, Kinder to Year 6)",-32.49723,150.905944,883,39,,2330
2234,Jesmond ,NSW,"Jesmond Public School, Ralph St, Postcode-2299","Primary School (Coed, Kinder to Year 6)",-32.903841,151.695427,962,184,,2299
2235,Jiggi ,NSW,"Jiggi Public School, Jiggi-Nimbin Rd, Postcode-2480","Primary School (Coed, Kinder to Year 6)",-28.677986,153.181368,1008,35,,2480
2236,Wyong ,NSW,"Jilliby Public School, Jilliby Rd, Postcode-2259","Primary School (Coed, Kinder to Year 6)",-33.239937,151.380052,972,70,,2259
2237,Jindabyne ,NSW,"Jindabyne Central School, Park Rd, Postcode-2627","CentralCommunity School (Coed, Kinder to Year 12)",-36.416703,148.618901,1029,787,,2627
2239,Jindera ,NSW,"Jindera Public School, Dight Street, Postcode-2642","Primary School (Coed, Kinder to Year 6)",-35.959036,146.886741,999,212,,2642
2243,Johns River ,NSW,"Johns River Public School, Station St, Postcode-2443","Primary School (Coed, Kinder to Year 6)",-31.733013,152.696599,933,14,,2443
2245,Jugiong ,NSW,"Jugiong Public School, Flyde St, Postcode-2727","Primary School (Coed, Kinder to Year 6)",-34.820203,148.335447,1035,24,,2727
2246,Merewether ,NSW,"The Junction Public School, Union St, Postcode-2291","Primary School (Coed, Kinder to Year 6)",-32.939964,151.758644,1119,625,,2291
2247,Junee,NSW,"Junee Public School, 116 Lorne St, Postcode-2663","Primary School (Coed, Kinder to Year 6)",-34.873488,147.584901,870,128,,2663
2248,Junee ,NSW,"Junee North Public School, Queen St, Postcode-2663","Primary School (Coed, Kinder to Year 6)",-34.855049,147.585376,940,164,,2663
2254,Kandos,NSW,"Kandos Public School, 23-37 Dangar Street, Postcode-2848","Primary School (Coed, Kinder to Year 6)",-32.856242,149.974813,893,141,,2848
2255,Kangaloon ,NSW,"Kangaloon Public School, Robertson St, Postcode-2576","Primary School (Coed, Kinder to Year 6)",-34.552607,150.529555,1049,35,,2576
2256,Kangaroo Valley ,NSW,"Kangaroo Valley Public School, Moss Vale-Nowra Rd, Postcode-2577","Primary School (Coed, Kinder to Year 6)",-34.73652,150.531996,1068,81,,2577
2259,Kanwal ,NSW,"Kanwal Public School, Craigie Ave, Postcode-2259","Primary School (Coed, Kinder to Year 6)",-33.262456,151.484884,960,688,,2259
2260,Karangi ,NSW,"Karangi Public School, Coffs Harbour-Coramba Rd, Postcode-2450","Primary School (Coed, Kinder to Year 6)",-30.252411,153.047767,1017,130,,2450
2263,Karuah ,NSW,"Karuah Public School, 18 Bundabah St, Postcode-2324","Primary School (Coed, Kinder to Year 6)",-32.654344,151.966595,873,130,,2324
2267,Kearsley,NSW,"Kearsley Public School, 130 Caledonia Street, Postcode-2325","Primary School (Coed, Kinder to Year 6)",-32.857249,151.395921,888,145,,2325
2270,Leichhardt ,NSW,"Kegworth Public School, 60 Tebbutt St, Postcode-2040","Primary School (Coed, Kinder to Year 6)",-33.886514,151.14693,1111,318,,2040
2271,Keiraville ,NSW,"Keiraville Public School, Gipps Rd, Postcode-2500","Primary School (Coed, Kinder to Year 6)",-34.414114,150.873364,1098,340,,2500
2273,Armidale,NSW,"Kellys Plains Public School, 45-47 Kelly's Plains School Rd, Postcode-2350","Primary School (Coed, Kinder to Year 6)",-30.571911,151.636504,1078,44,,2350
2274,Kellyville,NSW,"Kellyville Public School, 35A Windsor Road, Postcode-2155","Primary School (Coed, Kinder to Year 6)",-33.711052,150.957887,1071,646,,2155
2275,Kelso ,NSW,"Kelso Public School, 19 Gilmour Street, Postcode-2795","Primary School (Coed, Kinder to Year 6)",-33.416969,149.605156,818,257,,2795
2278,Kempsey ,NSW,"Kempsey East Public School, Innes St, Postcode-2440","Primary School (Coed, Kinder to Year 6)",-31.083703,152.846861,900,221,,2440
2279,West Kempsey,NSW,"Kempsey West Public School, Marsh St, Postcode-2440","Primary School (Coed, Kinder to Year 6)",-31.078377,152.8301,780,376,,2440
2280,Kendall ,NSW,"Kendall Public School, Logans Crossing Rd, Postcode-2439","Primary School (Coed, Kinder to Year 6)",-31.627392,152.702756,968,189,,2439
2283,Kensington,NSW,"Kensington Public School, 77-79 Doncaster Avenue, Postcode-2033","Primary School (Coed, Kinder to Year 6)",-33.909604,151.224965,1135,444,,2033
2284,Kenthurst,NSW,"Kenthurst Public School, 111 Kenthurst Road, Postcode-2156","Primary School (Coed, Kinder to Year 6)",-33.665603,151.004575,1067,213,,2156
2285,Campbelltown ,NSW,"Kentlyn Public School, Georges River Rd, Postcode-2560","Primary School (Coed, Kinder to Year 6)",-34.073132,150.858576,982,145,,2560
2286,Kentucky ,NSW,"Kentucky Public School, Noalimba Ave, Postcode-2354","Primary School (Coed, Kinder to Year 6)",-30.759618,151.449162,1048,49,,2354
2293,Kiama,NSW,"Kiama Public School, 67 Bong Bong Street, Postcode-2533","Primary School (Coed, Kinder to Year 6)",-34.669659,150.850567,1066,474,,2533
2303,Kinchela ,NSW,"Kinchela Public School, 5 Right Bank Rd, Postcode-2440","Primary School (Coed, Kinder to Year 6)",-30.991064,152.995063,939,26,,2440
2304,Kincumber ,NSW,"Kincumber Public School, Avoca Drive, Postcode-2251","Primary School (Coed, Kinder to Year 6)",-33.468184,151.394355,1014,443,,2251
2307,Kingsgrove ,NSW,"Kingsgrove Public School, Kingsgrove Rd, Postcode-2208","Primary School (Coed, Kinder to Year 6)",-33.947822,151.10156,1001,499,,2208
2308,Bexley ,NSW,"Bexley North Public School, 116 Kingsland Rd, Postcode-2207","Primary School (Coed, Kinder to Year 6)",-33.940838,151.120374,1091,529,,2207
2310,Kingstown ,NSW,"Kingstown Public School, Bundarra-Bendemeer Rd, Postcode-2358","Primary School (Coed, Kinder to Year 6)",-30.506681,151.116405,934,30,,2358
2312,Kingswood ,NSW,"Kingswood Public School, Second Ave, Postcode-2747","Primary School (Coed, Kinder to Year 6)",-33.765884,150.726509,1036,411,,2747
2314,Belford,NSW,"Kirkton Public School, 797 Standen Drive, Postcode-2335","Primary School (Coed, Kinder to Year 6)",-32.609773,151.290092,1034,41,,2335
2315,Kitchener,NSW,"Kitchener Public School, 38 Richmond Street, Postcode-2325","Primary School (Coed, Kinder to Year 6)",-32.87782,151.369977,942,78,,2325
2319,Kogarah ,NSW,"Kogarah Public School, Gladstone St, Postcode-2217","Primary School (Coed, Kinder to Year 6)",-33.962028,151.136618,1076,379,,2217
2326,Koorawatha,NSW,"Koorawatha Public School, Crowther Street, Postcode-2807","Primary School (Coed, Kinder to Year 6)",-34.034936,148.559705,915,30,,2807
2327,Kootingal,NSW,"Kootingal Public School, Denman Avenue, Postcode-2352","Primary School (Coed, Kinder to Year 6)",-31.053487,151.053682,939,184,,2352
2330,Korora,NSW,"Kororo Public School, 3 Korora School Road, Postcode-2450","Primary School (Coed, Kinder to Year 6)",-30.254553,153.131921,1012,638,,2450
2333,Krambach ,NSW,"Krambach Public School, 3838 Bucketts Way, Postcode-2429","Primary School (Coed, Kinder to Year 6)",-32.046146,152.272293,933,42,,2429
2334,Kulnura ,NSW,"Kulnura Public School, 9 Williams Rd, Postcode-2250","Primary School (Coed, Kinder to Year 6)",-33.232582,151.216011,978,58,,2250
2340,Kurmond ,NSW,"Kurmond Public School, 494 Bells Line of Road, Postcode-2757","Primary School (Coed, Kinder to Year 6)",-33.549715,150.692309,1020,188,,2757
2341,Kurnell ,NSW,"Kurnell Public School, Dampier & Torres Sts, Postcode-2231","Primary School (Coed, Kinder to Year 6)",-34.010156,151.203773,1002,207,,2231
2342,Kurrajong ,NSW,"Kurrajong Public School, 1111 Grose Vale Rd, Postcode-2758","Primary School (Coed, Kinder to Year 6)",-33.555196,150.662653,1057,229,,2758
2343,East Kurrajong,NSW,"Kurrajong East Public School, 891 East Kurrajong Road, Postcode-2758","Primary School (Coed, Kinder to Year 6)",-33.511172,150.77726,966,65,,2758
2344,Kurrajong Hills ,NSW,"Kurrajong North Public School, Bells Line of Road, Postcode-2758","Primary School (Coed, Kinder to Year 6)",-33.541815,150.639446,1053,102,,2758
2349,Kyogle ,NSW,"Kyogle Public School, 192 Summerland Way, Postcode-2474","Primary School (Coed, Kinder to Year 6)",-28.625165,153.003916,929,315,,2474
2353,Ladysmith ,NSW,"Ladysmith Public School, Tywong St, Postcode-2652","Primary School (Coed, Kinder to Year 6)",-35.208549,147.510963,973,41,,2652
2354,Laggan ,NSW,"Laggan Public School, Laggan Rd, Postcode-2583","Primary School (Coed, Kinder to Year 6)",-34.406246,149.527721,987,17,,2583
2356,Laguna,NSW,"Laguna Public School, 3738 The Great North Road, Postcode-2325","Primary School (Coed, Kinder to Year 6)",-32.992121,151.130526,1041,69,,2325
2357,Lake Albert ,NSW,"Lake Albert Public School, Main St, Postcode-2650","Primary School (Coed, Kinder to Year 6)",-35.173563,147.37924,1005,508,,2650
2359,Lake Cargelligo,NSW,"Lake Cargelligo Central School, 65 Canada Street, Postcode-2672","CentralCommunity School (Coed, Kinder to Year 12)",-33.294836,146.373966,848,260,,2672
2360,Lakemba ,NSW,"Lakemba Public School, Alice St, Postcode-2195","Primary School (Coed, Kinder to Year 6)",-33.923615,151.070046,998,510,,2195
2362,Lake Munmorah,NSW,"Lake Munmorah Public School, Carters Rd, Postcode-2259","Primary School (Coed, Kinder to Year 6)",-33.1882,151.575559,962,470,,2259
2363,Lake Wyangan ,NSW,"Lake Wyangan Public School, Boorga Rd, Postcode-2680","Primary School (Coed, Kinder to Year 6)",-34.248183,146.034238,975,115,,2680
2366,Lambton,NSW,"Lambton Public School, 18-30 Croudace St, Postcode-2299","Primary School (Coed, Kinder to Year 6)",-32.911705,151.704134,1024,386,,2299
2368,Lane Cove ,NSW,"Lane Cove Public School, Austin St & Longueville Rd, Postcode-2066","Primary School (Coed, Kinder to Year 6)",-33.816514,151.169134,1167,840,,2066
2370,Lansdowne,NSW,"Lansdowne Public School, Cundle Rd & Macquarie St, Postcode-2430","Primary School (Coed, Kinder to Year 6)",-31.783944,152.532056,887,47,,2430
2372,Upper Lansdowne ,NSW,"Upper Lansdowne Public School, 1399 Upper Lansdowne Rd, Postcode-2430","Primary School (Coed, Kinder to Year 6)",-31.705206,152.467389,944,26,,2430
2373,La Perouse ,NSW,"La Perouse Public School, Yarra Rd, Postcode-2036","Primary School (Coed, Kinder to Year 6)",-33.978352,151.235423,780,30,,2036
2374,Largs ,NSW,"Largs Public School, 1-5 Hunter St, Postcode-2320","Primary School (Coed, Kinder to Year 6)",-32.700491,151.60564,974,139,,2320
2375,Larnook,NSW,"Larnook Public School, 1282 Cawongla Road, Postcode-2480","Primary School (Coed, Kinder to Year 6)",-28.648612,153.114765,916,30,,2480
2377,Laurieton ,NSW,"Laurieton Public School, Bold St, Postcode-2443","Primary School (Coed, Kinder to Year 6)",-31.651768,152.797491,965,206,,2443
2378,Lavington ,NSW,"Lavington Public School, 497 Hague St, Postcode-2641","Primary School (Coed, Kinder to Year 6)",-36.037411,146.928265,948,308,,2641
2379,Lawrence ,NSW,"Lawrence Public School, High St, Postcode-2460","Primary School (Coed, Kinder to Year 6)",-29.491625,153.100368,945,62,,2460
2381,Lawson,NSW,"Lawson Public School, Adelaide Street, Postcode-2783","Primary School (Coed, Kinder to Year 6)",-33.721217,150.428243,1025,251,,2783
2386,Leeton,NSW,"Leeton Public School, Mallee St, Postcode-2705","Primary School (Coed, Kinder to Year 6)",-34.546126,146.407232,980,382,,2705
2391,Leura,NSW,"Leura Public School, Cnr Mount Hay Rd & Willow Park Ave, Postcode-2780","Primary School (Coed, Kinder to Year 6)",-33.711151,150.336733,1061,262,,2780
2394,Lidcombe ,NSW,"Lidcombe Public School, Mills Street, Postcode-2141","Primary School (Coed, Kinder to Year 6)",-33.861019,151.046926,1009,675,,2141
2395,Lightning Ridge,NSW,"Lightning Ridge Central School, Kaolin Street, Postcode-2834","CentralCommunity School (Coed, Kinder to Year 12)",-29.425211,147.978614,829,369,,2834
2403,Lindfield ,NSW,"Lindfield Public School, Pacific Hwy, Postcode-2070","Primary School (Coed, Kinder to Year 6)",-33.78075,151.168917,1184,771,,2070
2404,East Lindfield,NSW,"Lindfield East Public School, Tryon Rd, Postcode-2070","Primary School (Coed, Kinder to Year 6)",-33.767479,151.18429,1192,764,,2070
2407,Lisarow,NSW,"Lisarow Public School, 17 MacDonalds Road, Postcode-2250","Primary School (Coed, Kinder to Year 6)",-33.381283,151.376296,1037,306,,2250
2409,South Lismore,NSW,"Lismore South Public School, Phyllis St & Wilson St, Postcode-2480","Primary School (Coed, Kinder to Year 6)",-28.809502,153.262056,906,225,,2480
2410,Lithgow ,NSW,"Lithgow Public School, 163 Mort St, Postcode-2790","Primary School (Coed, Kinder to Year 6)",-33.482092,150.160227,930,396,,2790
2413,Llandilo,NSW,"Llandilo Public School, Seventh Ave, Postcode-2760","Primary School (Coed, Kinder to Year 6)",-33.707237,150.751783,943,335,,2760
2417,Lochinvar ,NSW,"Lochinvar Public School, New England Hwy, Postcode-2321","Primary School (Coed, Kinder to Year 6)",-32.700305,151.451988,977,156,,2321
2418,Lockhart ,NSW,"Lockhart Central School, Halliday St, Postcode-2656","CentralCommunity School (Coed, Kinder to Year 12)",-35.222753,146.714747,891,88,,2656
2421,Londonderry ,NSW,"Londonderry Public School, Londonderry Rd, Postcode-2753","Primary School (Coed, Kinder to Year 6)",-33.647454,150.736905,941,204,,2753
2423,Long Flat,NSW,"Long Flat Public School, 5077 Oxley Highway, Postcode-2446","Primary School (Coed, Kinder to Year 6)",-31.437823,152.48612,936,43,,2446
2428,Lowanna ,NSW,"Lowanna Public School, Coramba Rd, Postcode-2450","Primary School (Coed, Kinder to Year 6)",-30.20722,152.899923,851,33,,2450
2429,Lowesdale ,NSW,"Lowesdale Public School, Riverina Hwy, Postcode-2646","Primary School (Coed, Kinder to Year 6)",-35.856229,146.368662,1059,19,,2646
2431,Luddenham,NSW,"Luddenham Public School, 24 Jamison Street, Postcode-2745","Primary School (Coed, Kinder to Year 6)",-33.881331,150.691523,920,74,,2745
2432,Lue,NSW,"Lue Public School, Swanston St, Postcode-2850","Primary School (Coed, Kinder to Year 6)",-32.656339,149.844616,921,22,,2850
2436,Lyndhurst ,NSW,"Lyndhurst Public School, Marsden St, Postcode-2797","Primary School (Coed, Kinder to Year 6)",-33.673266,149.044914,936,31,,2797
2439,Central Macdonald,NSW,"Macdonald Valley Public School, 1331 St Albans Road, Postcode-2775","Primary School (Coed, Kinder to Year 6)",-33.321271,150.971993,945,9,,2775
2444,Macksville ,NSW,"Macksville Public School, 35a Wallace St, Postcode-2447","Primary School (Coed, Kinder to Year 6)",-30.707763,152.917145,920,393,,2447
2448,Maimuru ,NSW,"Maimuru Public School, Jack Masling Dr, Postcode-2594","Primary School (Coed, Kinder to Year 6)",-34.243066,148.214319,977,14,,2594
2451,East Maitland,NSW,"Maitland East Public School, William St, Postcode-2323","Primary School (Coed, Kinder to Year 6)",-32.748991,151.585256,977,606,,2323
2454,Malabar,NSW,"Malabar Public School, 231-239 Franklin Street, Postcode-2036","Primary School (Coed, Kinder to Year 6)",-33.962214,151.248559,1082,284,,2036
2460,Mandurama ,NSW,"Mandurama Public School, Loquat St, Postcode-2792","Primary School (Coed, Kinder to Year 6)",-33.65148,149.069495,,10,,2792
2464,Bentley ,NSW,"Manifold Public School, Lismore-Kyogle Rd, Postcode-2480","Primary School (Coed, Kinder to Year 6)",-28.749066,153.077066,953,38,,2480
2465,Manildra,NSW,"Manildra Public School, 2100 Packham Drive, Postcode-2865","Primary School (Coed, Kinder to Year 6)",-33.184214,148.700122,932,38,,2865
2469,Balgowlah ,NSW,"Manly West Public School, Griffith St, Postcode-2093","Primary School (Coed, Kinder to Year 6)",-33.791875,151.268753,1139,868,,2093
2472,Maraylya ,NSW,"Maraylya Public School, Neich Rd, Postcode-2765","Primary School (Coed, Kinder to Year 6)",-33.592681,150.916264,1041,111,,2765
2476,Pelican,NSW,"Pelican Flat Public School, Karog St, Postcode-2281","Primary School (Coed, Kinder to Year 6)",-33.074333,151.648248,933,44,,2281
2480,Maroota,NSW,"Maroota Public School, 4540 Old Northern Road, Postcode-2756","Primary School (Coed, Kinder to Year 6)",-33.455283,150.99365,1002,40,,2756
2482,Maroubra ,NSW,"Maroubra Bay Public School, Duncan St, Postcode-2035","Primary School (Coed, Kinder to Year 6)",-33.944236,151.253017,1073,318,,2035
2485,Marrar ,NSW,"Marrar Public School, Centenary Drive, Postcode-2652","Primary School (Coed, Kinder to Year 6)",-34.828341,147.355155,1020,21,,2652
2489,Marsden Park,NSW,"Marsden Park Public School, 363 Garfield Road West, Postcode-2765","Primary School (Coed, Kinder to Year 6)",-33.696425,150.833642,961,52,,2765
2492,Martindale,NSW,"Martindale Public School, 670 Martindale Rd, Postcode-2328","Primary School (Coed, Kinder to Year 6)",-32.458834,150.665723,931,15,,2328
2493,Martins Creek ,NSW,"Martins Creek Public School, Cook St, Postcode-2420","Primary School (Coed, Kinder to Year 6)",-32.565996,151.623453,,9,,2420
2494,Armidale ,NSW,"Martins Gully Public School, Bona Vista Rd, Postcode-2350","Primary School (Coed, Kinder to Year 6)",-30.523938,151.637256,1052,161,,2350
2496,Marulan ,NSW,"Marulan Public School, 63 George St, Postcode-2579","Primary School (Coed, Kinder to Year 6)",-34.713399,150.006603,926,119,,2579
2499,Mascot ,NSW,"Mascot Public School, King St, Postcode-2020","Primary School (Coed, Kinder to Year 6)",-33.928577,151.192485,1026,370,,2020
2500,Mathoura,NSW,"Mathoura Public School, 18-20 Frome Street, Postcode-2710","Primary School (Coed, Kinder to Year 6)",-35.816079,144.902097,943,63,,2710
2501,Matong,NSW,"Matong Public School, 5649 Canola Way, Postcode-2652","Primary School (Coed, Kinder to Year 6)",-34.770061,146.927303,1012,28,,2652
2502,Matraville ,NSW,"Matraville Public School, 310 Bunnerong Rd, Postcode-2036","Primary School (Coed, Kinder to Year 6)",-33.955064,151.229111,1010,241,,2036
2506,Mayfield East ,NSW,"Mayfield East Public School, 32 Crebert Street, Postcode-2304","Primary School (Coed, Kinder to Year 6)",-32.89536,151.748666,980,260,,2304
2507,Mayfield ,NSW,"Mayfield West Public School, Gregson Ave, Postcode-2304","Primary School (Coed, Kinder to Year 6)",-32.888697,151.730116,997,357,,2304
2508,Deniliquin ,NSW,"Mayrung Public School, Mayrung Rd, Postcode-2710","Primary School (Coed, Kinder to Year 6)",-35.464317,145.30879,960,32,,2710
2509,Meadow Flat,NSW,"Meadow Flat Public School, 2630 Great Western Highway, Postcode-2795","Primary School (Coed, Kinder to Year 6)",-33.433726,149.920456,990,50,,2795
2510,Seven Hills ,NSW,"The Meadows Public School, Fuller St, Postcode-2147","Primary School (Coed, Kinder to Year 6)",-33.781365,150.942567,937,210,,2147
2511,Medlow ,NSW,"Medlow Public School, Taylors Arm Rd, Postcode-2447","Primary School (Coed, Kinder to Year 6)",-30.779087,152.69016,969,8,,2447
2512,Medowie,NSW,"Medowie Public School, Ferodale Rd, Postcode-2318","Primary School (Coed, Kinder to Year 6)",-32.738245,151.85406,1007,349,,2318
2515,Megalong ,NSW,"Megalong Public School, Megalong Valley, Postcode-2785","Primary School (Coed, Kinder to Year 6)",-33.715301,150.232582,1018,13,,2785
2520,Menai ,NSW,"Menai Public School, 4R Hall Drive, Postcode-2234","Primary School (Coed, Kinder to Year 6)",-34.01213,151.006587,1003,99,,2234
2522,Mendooran,NSW,"Mendooran Central School, Brambil Street, Postcode-2842","CentralCommunity School (Coed, Kinder to Year 12)",-31.818731,149.122445,905,138,,2842
2523,Menindee,NSW,"Menindee Central School, 1 Bear St, Postcode-2879","CentralCommunity School (Coed, Kinder to Year 12)",-32.393368,142.41329,758,95,,2879
2525,Merewether,NSW,"Merewether Public School, 6 Henry Street, Postcode-2291","Primary School (Coed, Kinder to Year 6)",-32.937547,151.742152,999,157,,2291
2526,Merimbula,NSW,"Merimbula Public School, 47-55 Main Street, Postcode-2548","Primary School (Coed, Kinder to Year 6)",-36.886525,149.916952,990,412,,2548
2528,Merriwa,NSW,"Merriwa Central School, Bow Street, Postcode-2329","CentralCommunity School (Coed, Kinder to Year 12)",-32.145113,150.352867,869,274,,2329
2531,Merrylands ,NSW,"Merrylands Public School, Fowler Rd, Postcode-2160","Primary School (Coed, Kinder to Year 6)",-33.840516,150.976047,944,442,,2160
2532,Bonnells Bay ,NSW,"Bonnells Bay Public School, Morisset Park Rd, Postcode-2264","Primary School (Coed, Kinder to Year 6)",-33.114489,151.516783,966,437,,2264
2540,Michelago,NSW,"Michelago Public School, 20 Ryrie Street, Postcode-2620","Primary School (Coed, Kinder to Year 6)",-35.705975,149.161716,1027,35,,2620
2542,Middle Dural ,NSW,"Middle Dural Public School, Old Northern Rd, Postcode-2158","Primary School (Coed, Kinder to Year 6)",-33.64496,151.023178,1090,21,,2158
2543,Mosman ,NSW,"Middle Harbour Public School, 8 Hale Rd, Postcode-2088","Primary School (Coed, Kinder to Year 6)",-33.82282,151.2327,1177,624,,2088
2550,Milbrodale,NSW,"Milbrodale Public School, 2615 Putty Road, Postcode-2330","Primary School (Coed, Kinder to Year 6)",-32.696789,151.005819,848,9,,2330
2554,Millers Forest,NSW,"Millers Forest Public School, 127 Martins Wharf Road, Postcode-2324","Primary School (Coed, Kinder to Year 6)",-32.752067,151.703724,900,51,,2324
2555,Millfield ,NSW,"Millfield Public School, Wollombi Rd, Postcode-2325","Primary School (Coed, Kinder to Year 6)",-32.889837,151.250774,893,67,,2325
2558,Millthorpe ,NSW,"Millthorpe Public School, Park St, Postcode-2798","Primary School (Coed, Kinder to Year 6)",-33.445146,149.185939,1044,266,,2798
2560,Milperra ,NSW,"Milperra Public School, Pozieres Ave, Postcode-2214","Primary School (Coed, Kinder to Year 6)",-33.942077,150.979779,1028,232,,2214
2565,Milton ,NSW,"Milton Public School, Thomas St, Postcode-2538","Primary School (Coed, Kinder to Year 6)",-35.314149,150.435816,1005,661,,2538
2571,Minmi ,NSW,"Minmi Public School, Woodford St, Postcode-2287","Primary School (Coed, Kinder to Year 6)",-32.876125,151.617471,1012,109,,2287
2572,Minto ,NSW,"Minto Public School, Pembroke & Redfern Rds, Postcode-2566","Primary School (Coed, Kinder to Year 6)",-34.029979,150.847266,1011,201,,2566
2574,Miranda,NSW,"Miranda Public School, 3 Sylva Avenue, Postcode-2228","Primary School (Coed, Kinder to Year 6)",-34.034645,151.097405,1015,293,,2228
2580,Mitchells Island,NSW,"Mitchells Island Public School, 1222 Manning Point Rd, Postcode-2430","Primary School (Coed, Kinder to Year 6)",-31.896762,152.614054,919,31,,2430
2581,Mittagong ,NSW,"Mittagong Public School, 21 Pioneer St, Postcode-2575","Primary School (Coed, Kinder to Year 6)",-34.448044,150.44438,988,491,,2575
2584,Moama ,NSW,"Moama Public School, Simms St, Postcode-2731","Primary School (Coed, Kinder to Year 6)",-36.115314,144.762821,945,218,,2731
2585,Lismore ,NSW,"Modanville Public School, Dunoon Rd, Postcode-2480","Primary School (Coed, Kinder to Year 6)",-28.730204,153.297192,1018,83,,2480
2586,Mogo ,NSW,"Mogo Public School, Princes Hwy, Postcode-2536","Primary School (Coed, Kinder to Year 6)",-35.786091,150.140569,692,51,,2536
2590,Molong ,NSW,"Molong Central School, Phillip St, Postcode-2866","CentralCommunity School (Coed, Kinder to Year 12)",-33.098011,148.86389,950,481,,2866
2593,Mona Vale ,NSW,"Mona Vale Public School, Waratah St, Postcode-2103","Primary School (Coed, Kinder to Year 6)",-33.676998,151.300404,1105,1094,,2103
2599,Monteagle ,NSW,"Monteagle Public School, Murringo St, Postcode-2594","Primary School (Coed, Kinder to Year 6)",-34.192994,148.34725,960,22,,2594
2608,Moonbi ,NSW,"Moonbi Public School, New England Hwy, Postcode-2353","Primary School (Coed, Kinder to Year 6)",-31.019752,151.073573,874,54,,2353
2616,Moorland,NSW,"Moorland Public School, 15 Church Street, Postcode-2443","Primary School (Coed, Kinder to Year 6)",-31.769631,152.651174,913,52,,2443
2618,Moree ,NSW,"Moree Public School, Albert St, Postcode-2400","Primary School (Coed, Kinder to Year 6)",-29.466194,149.837564,868,607,,2400
2621,Morisset,NSW,"Morisset Public School, 6 Terrigal Street, Postcode-2264","Primary School (Coed, Kinder to Year 6)",-33.103543,151.489583,934,224,,2264
2623,Morpeth ,NSW,"Morpeth Public School, High St, Postcode-2321","Primary School (Coed, Kinder to Year 6)",-32.725663,151.632128,1011,216,,2321
2624,Mortdale ,NSW,"Mortdale Public School, Colebourne Ave, Postcode-2223","Primary School (Coed, Kinder to Year 6)",-33.972901,151.080995,1052,364,,2223
2625,Concord,NSW,"Mortlake Public School, Brays Rd, Postcode-2137","Primary School (Coed, Kinder to Year 6)",-33.849829,151.103861,1103,402,,2137
2628,Moruya ,NSW,"Moruya Public School, 22 Evans St, Postcode-2537","Primary School (Coed, Kinder to Year 6)",-35.912616,150.076453,937,364,,2537
2631,Moss Vale ,NSW,"Moss Vale Public School, Browley St, Postcode-2577","Primary School (Coed, Kinder to Year 6)",-34.550639,150.366434,983,529,,2577
2632,Moulamein ,NSW,"Moulamein Public School, Brougham St, Postcode-2733","Primary School (Coed, Kinder to Year 6)",-35.08927,144.032816,958,46,,2733
2637,Mount George ,NSW,"Mount George Public School, Nowendoc Rd, Postcode-2424","Primary School (Coed, Kinder to Year 6)",-31.880982,152.179633,921,27,,2424
